{
"type": "FeatureCollection",
"name": "חשיפה_לחולי_קורונה",
"crs": { "type": "name", "properties": { "name": "urn:ogc:def:crs:OGC:1.3:CRS84" } },
"features": [
{ "type": "Feature", "properties": { "OBJECTID": 7002654, "Name": null, "Place": "מלון הרלינגטון - אשקלון", "Comments": "יקותיאל אדם 9, אשקלון", "POINT_X": null, "POINT_Y": null, "fromTime": "2020\/10\/21 05:00:00", "toTime": "2020\/10\/21 20:29:59", "sourceOID": 1, "stayTimes": "מ 2020-10-21 08:00 עד 2020-10-21 23:30" }, "geometry": { "type": "Point", "coordinates": [ 34.565899100000024, 31.688940600000024 ] } },
{ "type": "Feature", "properties": { "OBJECTID": 7002655, "Name": null, "Place": "רבי יהודה הנשיא 4, אשדוד", "Comments": null, "POINT_X": null, "POINT_Y": null, "fromTime": "2020\/10\/21 08:00:00", "toTime": "2020\/10\/21 09:00:00", "sourceOID": 1, "stayTimes": "מ 2020-10-21 11:00 עד 2020-10-21 12:00" }, "geometry": { "type": "Point", "coordinates": [ 34.665846300000055, 31.792293800000039 ] } },
{ "type": "Feature", "properties": { "OBJECTID": 7002656, "Name": null, "Place": "המלאכה 2, נתניה", "Comments": null, "POINT_X": null, "POINT_Y": null, "fromTime": "2020\/10\/21 05:00:00", "toTime": "2020\/10\/21 12:59:59", "sourceOID": 1, "stayTimes": "מ 2020-10-21 08:00 עד 2020-10-21 16:00" }, "geometry": { "type": "Point", "coordinates": [ 34.857550300000071, 32.276131400000054 ] } },
{ "type": "Feature", "properties": { "OBJECTID": 7002657, "Name": null, "Place": "חגיגה בשקל - הכל בשקל נתניה - נתניה", "Comments": "שדרות חיים וייצמן 20, נתניה", "POINT_X": null, "POINT_Y": null, "fromTime": "2020\/10\/21 14:00:00", "toTime": "2020\/10\/21 14:29:59", "sourceOID": 1, "stayTimes": "מ 2020-10-21 17:00 עד 2020-10-21 17:30" }, "geometry": { "type": "Point", "coordinates": [ 34.859191800000076, 32.330972 ] } },
{ "type": "Feature", "properties": { "OBJECTID": 7002658, "Name": null, "Place": "ישיבת מיר - מרכזי - ירושלים", "Comments": "בית ישראל 3, ירושלים", "POINT_X": null, "POINT_Y": null, "fromTime": "2020\/10\/21 06:59:59", "toTime": "2020\/10\/21 15:59:59", "sourceOID": 1, "stayTimes": "מ 2020-10-21 10:00 עד 2020-10-21 19:00" }, "geometry": { "type": "Point", "coordinates": [ 35.224133, 31.788537700000063 ] } },
{ "type": "Feature", "properties": { "OBJECTID": 7002659, "Name": null, "Place": "גן הבנים - רחובות", "Comments": "רחובות", "POINT_X": null, "POINT_Y": null, "fromTime": "2020\/10\/21 15:30:00", "toTime": "2020\/10\/21 17:00:00", "sourceOID": 1, "stayTimes": "מ 2020-10-21 18:30 עד 2020-10-21 20:00" }, "geometry": { "type": "Point", "coordinates": [ 34.801176800000064, 31.90161960000006 ] } },
{ "type": "Feature", "properties": { "OBJECTID": 7002660, "Name": null, "Place": "קניון השרון - נתניה", "Comments": "הרצל 65, נתניה", "POINT_X": null, "POINT_Y": null, "fromTime": "2020\/10\/21 07:30:00", "toTime": "2020\/10\/21 09:00:00", "sourceOID": 1, "stayTimes": "מ 2020-10-21 10:30 עד 2020-10-21 12:00" }, "geometry": { "type": "Point", "coordinates": [ 34.862245600000051, 32.326868800000057 ] } },
{ "type": "Feature", "properties": { "OBJECTID": 7002661, "Name": null, "Place": "אושר עד גבעת שאול - ירושלים", "Comments": "בית הדפוס 29, ירושלים", "POINT_X": null, "POINT_Y": null, "fromTime": "2020\/10\/21 17:00:00", "toTime": "2020\/10\/21 18:59:59", "sourceOID": 1, "stayTimes": "מ 2020-10-21 20:00 עד 2020-10-21 22:00" }, "geometry": { "type": "Point", "coordinates": [ 35.183018900000036, 31.785258800000065 ] } },
{ "type": "Feature", "properties": { "OBJECTID": 7002662, "Name": "", "Place": "ישיבה קמניץ - ירושלים", "Comments": "יחזקאל 22, ירושלים", "POINT_X": null, "POINT_Y": null, "fromTime": "2020\/10\/20 21:00:00", "toTime": "2020\/10\/21 06:30:00", "sourceOID": 1, "stayTimes": "מ 2020-10-21 00:00 עד 2020-10-21 09:30" }, "geometry": { "type": "Point", "coordinates": [ 35.219649400000037, 31.790623700000026 ] } },
{ "type": "Feature", "properties": { "OBJECTID": 7002663, "Name": null, "Place": "בית חולים אנגלי נצרת - נצרת", "Comments": "נצרת", "POINT_X": null, "POINT_Y": null, "fromTime": "2020\/10\/22 06:00:00", "toTime": "2020\/10\/22 06:30:00", "sourceOID": 1, "stayTimes": "מ 2020-10-22 09:00 עד 2020-10-22 09:30" }, "geometry": { "type": "Point", "coordinates": [ 35.29214010000004, 32.702209 ] } },
{ "type": "Feature", "properties": { "OBJECTID": 7002664, "Name": null, "Place": "בית חולים אנגלי נצרת - נצרת", "Comments": "נצרת", "POINT_X": null, "POINT_Y": null, "fromTime": "2020\/10\/22 05:00:00", "toTime": "2020\/10\/22 05:29:59", "sourceOID": 1, "stayTimes": "מ 2020-10-22 08:00 עד 2020-10-22 08:30" }, "geometry": { "type": "Point", "coordinates": [ 35.29214010000004, 32.702209 ] } },
{ "type": "Feature", "properties": { "OBJECTID": 7002665, "Name": null, "Place": "מיקס סטור - קרית מלאכי", "Comments": "קרית מלאכי", "POINT_X": null, "POINT_Y": null, "fromTime": "2020\/10\/21 06:59:59", "toTime": "2020\/10\/21 09:59:59", "sourceOID": 1, "stayTimes": "מ 2020-10-21 10:00 עד 2020-10-21 13:00" }, "geometry": { "type": "Point", "coordinates": [ 34.747267100000045, 31.730318500000067 ] } },
{ "type": "Feature", "properties": { "OBJECTID": 7002666, "Name": null, "Place": "שופרסל דיל - דימונה", "Comments": "שדרות גולדה מאיר 1, דימונה", "POINT_X": null, "POINT_Y": null, "fromTime": "2020\/10\/21 06:59:59", "toTime": "2020\/10\/21 08:00:00", "sourceOID": 1, "stayTimes": "מ 2020-10-21 10:00 עד 2020-10-21 11:00" }, "geometry": { "type": "Point", "coordinates": [ 35.032371, 31.074295 ] } },
{ "type": "Feature", "properties": { "OBJECTID": 7002667, "Name": null, "Place": "סופר-פארם המשחררים - באר שבע", "Comments": "דרך המשחררים 70, באר שבע", "POINT_X": null, "POINT_Y": null, "fromTime": "2020\/10\/21 13:30:00", "toTime": "2020\/10\/21 14:29:59", "sourceOID": 1, "stayTimes": "מ 2020-10-21 16:30 עד 2020-10-21 17:30" }, "geometry": { "type": "Point", "coordinates": [ 34.78592290000006, 31.251528200000052 ] } },
{ "type": "Feature", "properties": { "OBJECTID": 7002668, "Name": null, "Place": "כל בו חצי חינם - חולון", "Comments": "הכישור 22, חולון", "POINT_X": null, "POINT_Y": null, "fromTime": "2020\/10\/22 12:59:59", "toTime": "2020\/10\/22 14:00:00", "sourceOID": 1, "stayTimes": "מ 2020-10-22 16:00 עד 2020-10-22 17:00" }, "geometry": { "type": "Point", "coordinates": [ 34.803677, 32.00373460000003 ] } },
{ "type": "Feature", "properties": { "OBJECTID": 7002669, "Name": null, "Place": "לאומית - רהט", "Comments": "רהט", "POINT_X": null, "POINT_Y": null, "fromTime": "2020\/10\/22 05:29:59", "toTime": "2020\/10\/22 07:30:00", "sourceOID": 1, "stayTimes": "מ 2020-10-22 08:30 עד 2020-10-22 10:30" }, "geometry": { "type": "Point", "coordinates": [ 34.757193, 31.396469 ] } },
{ "type": "Feature", "properties": { "OBJECTID": 7002670, "Name": null, "Place": "ביג סטוק - בת ים", "Comments": "בלפור 84, בת ים", "POINT_X": null, "POINT_Y": null, "fromTime": "2020\/10\/21 05:00:00", "toTime": "2020\/10\/21 05:29:59", "sourceOID": 1, "stayTimes": "מ 2020-10-21 08:00 עד 2020-10-21 08:30" }, "geometry": { "type": "Point", "coordinates": [ 34.745507, 32.019176400000049 ] } },
{ "type": "Feature", "properties": { "OBJECTID": 7002671, "Name": null, "Place": "מחסני חשמל - באר טוביה", "Comments": "באר טוביה", "POINT_X": null, "POINT_Y": null, "fromTime": "2020\/10\/21 08:00:00", "toTime": "2020\/10\/21 09:59:59", "sourceOID": 1, "stayTimes": "מ 2020-10-21 11:00 עד 2020-10-21 13:00" }, "geometry": { "type": "Point", "coordinates": [ 34.754830600000048, 31.728808500000071 ] } },
{ "type": "Feature", "properties": { "OBJECTID": 7002672, "Name": null, "Place": "רמי לוי שיווק השיקמה - קסטינה - באר טוביה", "Comments": "באר טוביה", "POINT_X": null, "POINT_Y": null, "fromTime": "2020\/10\/21 06:59:59", "toTime": "2020\/10\/21 08:00:00", "sourceOID": 1, "stayTimes": "מ 2020-10-21 10:00 עד 2020-10-21 11:00" }, "geometry": { "type": "Point", "coordinates": [ 34.754139, 31.727822900000035 ] } },
{ "type": "Feature", "properties": { "OBJECTID": 7002673, "Name": null, "Place": "באג BUG", "Comments": null, "POINT_X": null, "POINT_Y": null, "fromTime": "2020\/10\/21 09:59:59", "toTime": "2020\/10\/21 11:29:59", "sourceOID": 1, "stayTimes": "מ 2020-10-21 13:00 עד 2020-10-21 14:30" }, "geometry": { "type": "Point", "coordinates": [ 34.754413700000043, 31.727973600000041 ] } },
{ "type": "Feature", "properties": { "OBJECTID": 7002674, "Name": null, "Place": "מכבי באר שבע שכונה ט - באר שבע", "Comments": "בית אל 31, באר שבע", "POINT_X": null, "POINT_Y": null, "fromTime": "2020\/10\/22 09:30:00", "toTime": "2020\/10\/22 09:59:59", "sourceOID": 1, "stayTimes": "מ 2020-10-22 12:30 עד 2020-10-22 13:00" }, "geometry": { "type": "Point", "coordinates": [ 34.773564900000054, 31.244108900000072 ] } },
{ "type": "Feature", "properties": { "OBJECTID": 7002675, "Name": null, "Place": "שופרסל שלי - גבעתיים", "Comments": "וייצמן 20, גבעתיים", "POINT_X": null, "POINT_Y": null, "fromTime": "2020\/10\/21 03:59:59", "toTime": "2020\/10\/21 14:00:00", "sourceOID": 1, "stayTimes": "מ 2020-10-21 07:00 עד 2020-10-21 17:00" }, "geometry": { "type": "Point", "coordinates": [ 34.808382300000062, 32.07410550000003 ] } },
{ "type": "Feature", "properties": { "OBJECTID": 7002676, "Name": null, "Place": "המרכז הרפואי האוניברסיטאי סורוקה - באר שבע", "Comments": "שדרות יצחק רגר 151, באר שבע", "POINT_X": null, "POINT_Y": null, "fromTime": "2020\/10\/22 06:30:00", "toTime": "2020\/10\/22 12:00:00", "sourceOID": 1, "stayTimes": "מ 2020-10-22 09:30 עד 2020-10-22 15:00" }, "geometry": { "type": "Point", "coordinates": [ 34.79940090000008, 31.25806330000006 ] } },
{ "type": "Feature", "properties": { "OBJECTID": 7002677, "Name": null, "Place": "מוקד מכבי חולון - חולון", "Comments": "אליעזר הופיין 13, חולון", "POINT_X": null, "POINT_Y": null, "fromTime": "2020\/10\/21 09:00:00", "toTime": "2020\/10\/21 09:59:59", "sourceOID": 1, "stayTimes": "מ 2020-10-21 12:00 עד 2020-10-21 13:00" }, "geometry": { "type": "Point", "coordinates": [ 34.767019700000048, 32.01425160000008 ] } },
{ "type": "Feature", "properties": { "OBJECTID": 7002678, "Name": null, "Place": "בית הדפוס 11, ירושלים", "Comments": null, "POINT_X": null, "POINT_Y": null, "fromTime": "2020\/10\/21 14:29:59", "toTime": "2020\/10\/21 15:30:00", "sourceOID": 1, "stayTimes": "מ 2020-10-21 17:30 עד 2020-10-21 18:30" }, "geometry": { "type": "Point", "coordinates": [ 35.188577300000077, 31.785851700000023 ] } },
{ "type": "Feature", "properties": { "OBJECTID": 7002679, "Name": null, "Place": "ויקטורי - אשקלון", "Comments": "שדרות דוד בן גוריון 17, אשקלון", "POINT_X": null, "POINT_Y": null, "fromTime": "2020\/10\/21 05:00:00", "toTime": "2020\/10\/21 05:29:59", "sourceOID": 1, "stayTimes": "מ 2020-10-21 08:00 עד 2020-10-21 08:30" }, "geometry": { "type": "Point", "coordinates": [ 34.563275200000078, 31.664189400000055 ] } },
{ "type": "Feature", "properties": { "OBJECTID": 7002680, "Name": null, "Place": "משה זילברג 32, ירושלים", "Comments": null, "POINT_X": null, "POINT_Y": null, "fromTime": "2020\/10\/21 11:00:00", "toTime": "2020\/10\/21 14:00:00", "sourceOID": 1, "stayTimes": "מ 2020-10-21 14:00 עד 2020-10-21 17:00" }, "geometry": { "type": "Point", "coordinates": [ 35.185989200000051, 31.761915700000031 ] } },
{ "type": "Feature", "properties": { "OBJECTID": 7002681, "Name": "", "Place": "כל בו חצי חינם - חולון", "Comments": "הכישור 22, חולון", "POINT_X": null, "POINT_Y": null, "fromTime": "2020\/10\/21 12:00:00", "toTime": "2020\/10\/21 18:59:59", "sourceOID": 1, "stayTimes": "מ 2020-10-21 15:00 עד 2020-10-21 22:00" }, "geometry": { "type": "Point", "coordinates": [ 34.803677, 32.00373460000003 ] } },
{ "type": "Feature", "properties": { "OBJECTID": 7002682, "Name": null, "Place": "בית חולים אנגלי נצרת - נצרת", "Comments": "נצרת", "POINT_X": null, "POINT_Y": null, "fromTime": "2020\/10\/23 08:29:59", "toTime": "2020\/10\/23 12:00:00", "sourceOID": 1, "stayTimes": "מ 2020-10-23 11:30 עד 2020-10-23 15:00" }, "geometry": { "type": "Point", "coordinates": [ 35.29214010000004, 32.702209 ] } },
{ "type": "Feature", "properties": { "OBJECTID": 7002683, "Name": null, "Place": "בית חולים אנגלי נצרת - נצרת", "Comments": "נצרת", "POINT_X": null, "POINT_Y": null, "fromTime": "2020\/10\/22 11:00:00", "toTime": "2020\/10\/22 12:00:00", "sourceOID": 1, "stayTimes": "מ 2020-10-22 14:00 עד 2020-10-22 15:00" }, "geometry": { "type": "Point", "coordinates": [ 35.29214010000004, 32.702209 ] } },
{ "type": "Feature", "properties": { "OBJECTID": 7002684, "Name": null, "Place": "בית חולים אנגלי נצרת - נצרת", "Comments": "נצרת", "POINT_X": null, "POINT_Y": null, "fromTime": "2020\/10\/22 15:00:00", "toTime": "2020\/10\/22 15:59:59", "sourceOID": 1, "stayTimes": "מ 2020-10-22 18:00 עד 2020-10-22 19:00" }, "geometry": { "type": "Point", "coordinates": [ 35.29214010000004, 32.702209 ] } },
{ "type": "Feature", "properties": { "OBJECTID": 7002685, "Name": "", "Place": "בי\"ס סוכת דוד - בית שמש", "Comments": "נחל ערוגות 11, בית שמש", "POINT_X": null, "POINT_Y": null, "fromTime": "2020\/10\/21 06:59:59", "toTime": "2020\/10\/21 09:59:59", "sourceOID": 1, "stayTimes": "מ 2020-10-21 10:00 עד 2020-10-21 13:00" }, "geometry": { "type": "Point", "coordinates": [ 34.987906700000053, 31.716070200000047 ] } },
{ "type": "Feature", "properties": { "OBJECTID": 7002686, "Name": null, "Place": "כללית המעיין - נצרת", "Comments": "הגליל 22, נצרת", "POINT_X": null, "POINT_Y": null, "fromTime": "2020\/10\/21 09:59:59", "toTime": "2020\/10\/21 11:00:00", "sourceOID": 1, "stayTimes": "מ 2020-10-21 13:00 עד 2020-10-21 14:00" }, "geometry": { "type": "Point", "coordinates": [ 35.303756600000042, 32.705604100000073 ] } },
{ "type": "Feature", "properties": { "OBJECTID": 7002687, "Name": null, "Place": "כללית המעיין - נצרת", "Comments": "הגליל 22, נצרת", "POINT_X": null, "POINT_Y": null, "fromTime": "2020\/10\/22 05:15:00", "toTime": "2020\/10\/22 05:29:59", "sourceOID": 1, "stayTimes": "מ 2020-10-22 08:15 עד 2020-10-22 08:30" }, "geometry": { "type": "Point", "coordinates": [ 35.303756600000042, 32.705604100000073 ] } },
{ "type": "Feature", "properties": { "OBJECTID": 7002688, "Name": null, "Place": "כללית המעיין - נצרת", "Comments": "הגליל 22, נצרת", "POINT_X": null, "POINT_Y": null, "fromTime": "2020\/10\/22 11:00:00", "toTime": "2020\/10\/22 11:29:59", "sourceOID": 1, "stayTimes": "מ 2020-10-22 14:00 עד 2020-10-22 14:30" }, "geometry": { "type": "Point", "coordinates": [ 35.303756600000042, 32.705604100000073 ] } },
{ "type": "Feature", "properties": { "OBJECTID": 7002689, "Name": null, "Place": "בית חולים איטלקי\/רחוב 6004 - נצרת", "Comments": "נצרת", "POINT_X": null, "POINT_Y": null, "fromTime": "2020\/10\/23 09:59:59", "toTime": "2020\/10\/23 15:30:00", "sourceOID": 1, "stayTimes": "מ 2020-10-23 13:00 עד 2020-10-23 18:30" }, "geometry": { "type": "Point", "coordinates": [ 35.311615, 32.7057 ] } },
{ "type": "Feature", "properties": { "OBJECTID": 7002690, "Name": null, "Place": "בוטיק הפיתה - אשדוד", "Comments": "אשדוד", "POINT_X": null, "POINT_Y": null, "fromTime": "2020\/10\/23 05:29:59", "toTime": "2020\/10\/23 05:45:00", "sourceOID": 1, "stayTimes": "מ 2020-10-23 08:30 עד 2020-10-23 08:45" }, "geometry": { "type": "Point", "coordinates": [ 34.63985770000005, 31.794959200000051 ] } },
{ "type": "Feature", "properties": { "OBJECTID": 7002691, "Name": null, "Place": "גוד פארם רעננה - רעננה", "Comments": "אחוזה 144, רעננה", "POINT_X": null, "POINT_Y": null, "fromTime": "2020\/10\/22 12:30:00", "toTime": "2020\/10\/22 18:30:00", "sourceOID": 1, "stayTimes": "מ 2020-10-22 15:30 עד 2020-10-22 21:30" }, "geometry": { "type": "Point", "coordinates": [ 34.871690800000067, 32.181375900000035 ] } },
{ "type": "Feature", "properties": { "OBJECTID": 7002692, "Name": null, "Place": "גוד פארם רעננה - רעננה", "Comments": "אחוזה 144, רעננה", "POINT_X": null, "POINT_Y": null, "fromTime": "2020\/10\/23 05:29:59", "toTime": "2020\/10\/23 08:00:00", "sourceOID": 1, "stayTimes": "מ 2020-10-23 08:30 עד 2020-10-23 11:00" }, "geometry": { "type": "Point", "coordinates": [ 34.871690800000067, 32.181375900000035 ] } },
{ "type": "Feature", "properties": { "OBJECTID": 7002693, "Name": null, "Place": "אושר עד גבעת שאול - ירושלים", "Comments": "בית הדפוס 29, ירושלים", "POINT_X": null, "POINT_Y": null, "fromTime": "2020\/10\/22 19:30:00", "toTime": "2020\/10\/22 20:00:00", "sourceOID": 1, "stayTimes": "מ 2020-10-22 22:30 עד 2020-10-22 23:00" }, "geometry": { "type": "Point", "coordinates": [ 35.183018900000036, 31.785258800000065 ] } },
{ "type": "Feature", "properties": { "OBJECTID": 7002694, "Name": null, "Place": "עיריית טירה - טירה", "Comments": "טירה", "POINT_X": null, "POINT_Y": null, "fromTime": "2020\/10\/21 05:00:00", "toTime": "2020\/10\/21 12:30:00", "sourceOID": 1, "stayTimes": "מ 2020-10-21 08:00 עד 2020-10-21 15:30" }, "geometry": { "type": "Point", "coordinates": [ 34.953609200000074, 32.23132940000005 ] } },
{ "type": "Feature", "properties": { "OBJECTID": 7002695, "Name": null, "Place": "עיריית טירה - טירה", "Comments": "טירה", "POINT_X": null, "POINT_Y": null, "fromTime": "2020\/10\/22 05:00:00", "toTime": "2020\/10\/22 12:30:00", "sourceOID": 1, "stayTimes": "מ 2020-10-22 08:00 עד 2020-10-22 15:30" }, "geometry": { "type": "Point", "coordinates": [ 34.953609200000074, 32.23132940000005 ] } },
{ "type": "Feature", "properties": { "OBJECTID": 7002696, "Name": null, "Place": "KSP סניף ירושלים (חוצבים) - ירושלים", "Comments": "קרית המדע 3, ירושלים", "POINT_X": null, "POINT_Y": null, "fromTime": "2020\/10\/23 06:30:00", "toTime": "2020\/10\/23 06:59:59", "sourceOID": 1, "stayTimes": "מ 2020-10-23 09:30 עד 2020-10-23 10:00" }, "geometry": { "type": "Point", "coordinates": [ 35.210768, 31.800383600000032 ] } },
{ "type": "Feature", "properties": { "OBJECTID": 7002697, "Name": null, "Place": "ורונה תעשיות שיש בע\"מ - ירושלים", "Comments": "הסדנא 4, ירושלים", "POINT_X": null, "POINT_Y": null, "fromTime": "2020\/10\/21 09:59:59", "toTime": "2020\/10\/21 10:30:00", "sourceOID": 1, "stayTimes": "מ 2020-10-21 13:00 עד 2020-10-21 13:30" }, "geometry": { "type": "Point", "coordinates": [ 35.216374200000075, 31.749682700000051 ] } },
{ "type": "Feature", "properties": { "OBJECTID": 7002698, "Name": null, "Place": "פירות וירקות אורי כדורי - ירושלים", "Comments": "אור אלחנן 8, ירושלים", "POINT_X": null, "POINT_Y": null, "fromTime": "2020\/10\/22 10:30:00", "toTime": "2020\/10\/22 11:00:00", "sourceOID": 1, "stayTimes": "מ 2020-10-22 13:30 עד 2020-10-22 14:00" }, "geometry": { "type": "Point", "coordinates": [ 35.203533300000061, 31.792991 ] } },
{ "type": "Feature", "properties": { "OBJECTID": 7002699, "Name": null, "Place": "כותל המערבי - ירושלים", "Comments": "ירושלים", "POINT_X": null, "POINT_Y": null, "fromTime": "2020\/10\/22 09:30:00", "toTime": "2020\/10\/22 09:59:59", "sourceOID": 1, "stayTimes": "מ 2020-10-22 12:30 עד 2020-10-22 13:00" }, "geometry": { "type": "Point", "coordinates": [ 35.234508500000061, 31.776718900000049 ] } },
{ "type": "Feature", "properties": { "OBJECTID": 7002700, "Name": null, "Place": "מרכז רפואי רבין - פתח תקווה", "Comments": "זאב ז'בוטינסקי 39, פתח תקווה", "POINT_X": null, "POINT_Y": null, "fromTime": "2020\/10\/21 13:30:00", "toTime": "2020\/10\/21 14:29:59", "sourceOID": 1, "stayTimes": "מ 2020-10-21 16:30 עד 2020-10-21 17:30" }, "geometry": { "type": "Point", "coordinates": [ 34.866866800000025, 32.089156700000046 ] } },
{ "type": "Feature", "properties": { "OBJECTID": 7002701, "Name": null, "Place": "נילית בעמ - מגדל העמק", "Comments": "מגדל העמק", "POINT_X": null, "POINT_Y": null, "fromTime": "2020\/10\/21 03:59:59", "toTime": "2020\/10\/21 16:30:00", "sourceOID": 1, "stayTimes": "מ 2020-10-21 07:00 עד 2020-10-21 19:30" }, "geometry": { "type": "Point", "coordinates": [ 35.254993100000036, 32.688262100000031 ] } },
{ "type": "Feature", "properties": { "OBJECTID": 7002702, "Name": null, "Place": "בנק הפועלים - קרית גת", "Comments": "שדרות לכיש 30, קרית גת", "POINT_X": null, "POINT_Y": null, "fromTime": "2020\/10\/21 12:59:59", "toTime": "2020\/10\/21 13:30:00", "sourceOID": 1, "stayTimes": "מ 2020-10-21 16:00 עד 2020-10-21 16:30" }, "geometry": { "type": "Point", "coordinates": [ 34.773305100000073, 31.60809450000005 ] } },
{ "type": "Feature", "properties": { "OBJECTID": 7002703, "Name": null, "Place": "אסותא ראשון לציון - ראשון לציון", "Comments": "אליעזר מזל 13, ראשון לציון", "POINT_X": null, "POINT_Y": null, "fromTime": "2020\/10\/22 15:59:59", "toTime": "2020\/10\/22 20:00:00", "sourceOID": 1, "stayTimes": "מ 2020-10-22 19:00 עד 2020-10-22 23:00" }, "geometry": { "type": "Point", "coordinates": [ 34.772676500000046, 31.991843200000062 ] } },
{ "type": "Feature", "properties": { "OBJECTID": 7002704, "Name": null, "Place": "אסותא ראשון לציון - ראשון לציון", "Comments": "אליעזר מזל 13, ראשון לציון", "POINT_X": null, "POINT_Y": null, "fromTime": "2020\/10\/22 15:59:59", "toTime": "2020\/10\/22 20:00:00", "sourceOID": 1, "stayTimes": "מ 2020-10-22 19:00 עד 2020-10-22 23:00" }, "geometry": { "type": "Point", "coordinates": [ 34.772676500000046, 31.991843200000062 ] } },
{ "type": "Feature", "properties": { "OBJECTID": 7002705, "Name": null, "Place": "נמל התעופה בן גוריון", "Comments": null, "POINT_X": null, "POINT_Y": null, "fromTime": "2020\/10\/22 21:10:00", "toTime": "2020\/10\/22 23:29:59", "sourceOID": 1, "stayTimes": "מ 2020-10-23 00:10 עד 2020-10-23 02:30" }, "geometry": { "type": "Point", "coordinates": [ 34.885411200000078, 32.005532 ] } },
{ "type": "Feature", "properties": { "OBJECTID": 7002706, "Name": null, "Place": "שופרסל שלי קרית חיים - דגניה - חיפה", "Comments": "שדרות דגניה 14, חיפה", "POINT_X": null, "POINT_Y": null, "fromTime": "2020\/10\/22 15:14:59", "toTime": "2020\/10\/22 16:44:59", "sourceOID": 1, "stayTimes": "מ 2020-10-22 18:15 עד 2020-10-22 19:45" }, "geometry": { "type": "Point", "coordinates": [ 35.060100100000056, 32.82868650000006 ] } },
{ "type": "Feature", "properties": { "OBJECTID": 7002707, "Name": null, "Place": "مسجد العجمي - תל אביב יפו", "Comments": "הספינה , תל אביב יפו", "POINT_X": null, "POINT_Y": null, "fromTime": "2020\/10\/23 09:30:00", "toTime": "2020\/10\/23 10:30:00", "sourceOID": 1, "stayTimes": "מ 2020-10-23 12:30 עד 2020-10-23 13:30" }, "geometry": { "type": "Point", "coordinates": [ 34.749010600000076, 32.046873300000073 ] } },
{ "type": "Feature", "properties": { "OBJECTID": 7002708, "Name": null, "Place": "יוחננוף - אור יהודה", "Comments": "הפלדה 1, אור יהודה", "POINT_X": null, "POINT_Y": null, "fromTime": "2020\/10\/21 15:00:00", "toTime": "2020\/10\/21 18:59:59", "sourceOID": 1, "stayTimes": "מ 2020-10-21 18:00 עד 2020-10-21 22:00" }, "geometry": { "type": "Point", "coordinates": [ 34.850993500000072, 32.032758400000034 ] } },
{ "type": "Feature", "properties": { "OBJECTID": 7002709, "Name": null, "Place": "מכבי שירותי בריאות - רמלה", "Comments": "ויצמן 11, רמלה", "POINT_X": null, "POINT_Y": null, "fromTime": "2020\/10\/22 09:45:00", "toTime": "2020\/10\/22 10:09:59", "sourceOID": 1, "stayTimes": "מ 2020-10-22 12:45 עד 2020-10-22 13:10" }, "geometry": { "type": "Point", "coordinates": [ 34.86593460000006, 31.929030900000043 ] } },
{ "type": "Feature", "properties": { "OBJECTID": 7002710, "Name": null, "Place": "יינות ביתן - מודיעין מכבים רעות", "Comments": "עמק האלה 250, מודיעין מכבים רעות", "POINT_X": null, "POINT_Y": null, "fromTime": "2020\/10\/22 11:29:59", "toTime": "2020\/10\/22 12:59:59", "sourceOID": 1, "stayTimes": "מ 2020-10-22 14:30 עד 2020-10-22 16:00" }, "geometry": { "type": "Point", "coordinates": [ 34.981551, 31.91951 ] } },
{ "type": "Feature", "properties": { "OBJECTID": 7002711, "Name": null, "Place": "שערי תורה - אור עקיבא", "Comments": "אור עקיבא", "POINT_X": null, "POINT_Y": null, "fromTime": "2020\/10\/21 05:00:00", "toTime": "2020\/10\/21 12:59:59", "sourceOID": 1, "stayTimes": "מ 2020-10-21 08:00 עד 2020-10-21 16:00" }, "geometry": { "type": "Point", "coordinates": [ 34.914122, 32.509011500000042 ] } },
{ "type": "Feature", "properties": { "OBJECTID": 7002712, "Name": null, "Place": "שערי תורה - אור עקיבא", "Comments": "אור עקיבא", "POINT_X": null, "POINT_Y": null, "fromTime": "2020\/10\/22 05:00:00", "toTime": "2020\/10\/22 12:59:59", "sourceOID": 1, "stayTimes": "מ 2020-10-22 08:00 עד 2020-10-22 16:00" }, "geometry": { "type": "Point", "coordinates": [ 34.914122, 32.509011500000042 ] } },
{ "type": "Feature", "properties": { "OBJECTID": 7002713, "Name": "", "Place": "נתן שטראוס 10, ירושלים", "Comments": null, "POINT_X": null, "POINT_Y": null, "fromTime": "2020\/10\/23 06:59:59", "toTime": "2020\/10\/23 07:30:00", "sourceOID": 1, "stayTimes": "מ 2020-10-23 10:00 עד 2020-10-23 10:30" }, "geometry": { "type": "Point", "coordinates": [ 35.218581800000038, 31.784799700000065 ] } },
{ "type": "Feature", "properties": { "OBJECTID": 7002714, "Name": null, "Place": "גרעיני עפולה - חיפה", "Comments": "שדרות אח\"י אילת 66, חיפה", "POINT_X": null, "POINT_Y": null, "fromTime": "2020\/10\/22 21:00:00", "toTime": "2020\/10\/22 21:14:59", "sourceOID": 1, "stayTimes": "מ 2020-10-23 00:00 עד 2020-10-23 00:15" }, "geometry": { "type": "Point", "coordinates": [ 35.07693340000003, 32.818011200000058 ] } },
{ "type": "Feature", "properties": { "OBJECTID": 7002715, "Name": null, "Place": "שופרסל דיל - אשדוד", "Comments": "שבט לוי 12, אשדוד", "POINT_X": null, "POINT_Y": null, "fromTime": "2020\/10\/22 12:00:00", "toTime": "2020\/10\/22 12:59:59", "sourceOID": 1, "stayTimes": "מ 2020-10-22 15:00 עד 2020-10-22 16:00" }, "geometry": { "type": "Point", "coordinates": [ 34.635639300000037, 31.778083 ] } },
{ "type": "Feature", "properties": { "OBJECTID": 7002716, "Name": "", "Place": "חיותה בלארג' - ירושלים", "Comments": "Ha Rav Simkha Zisel Broide St. 3, ירושלים", "POINT_X": null, "POINT_Y": null, "fromTime": "2020\/10\/21 15:30:00", "toTime": "2020\/10\/21 15:59:59", "sourceOID": 1, "stayTimes": "מ 2020-10-21 18:30 עד 2020-10-21 19:00" }, "geometry": { "type": "Point", "coordinates": [ 35.217356100000075, 31.78910170000006 ] } },
{ "type": "Feature", "properties": { "OBJECTID": 7002717, "Name": "בית כנסת חסידי גור", "Place": "חידושי הרי\"ם 4, בני ברק", "Comments": null, "POINT_X": null, "POINT_Y": null, "fromTime": "2020\/10\/23 14:29:59", "toTime": "2020\/10\/23 17:00:00", "sourceOID": 1, "stayTimes": "מ 2020-10-23 17:30 עד 2020-10-23 20:00" }, "geometry": { "type": "Point", "coordinates": [ 34.835378500000047, 32.07746510000004 ] } },
{ "type": "Feature", "properties": { "OBJECTID": 7002718, "Name": "בית כנסת חסידי גור", "Place": "חידושי הרי\"ם 4, בני ברק", "Comments": null, "POINT_X": null, "POINT_Y": null, "fromTime": "2020\/10\/22 14:00:00", "toTime": "2020\/10\/22 16:30:00", "sourceOID": 1, "stayTimes": "מ 2020-10-22 17:00 עד 2020-10-22 19:30" }, "geometry": { "type": "Point", "coordinates": [ 34.835378500000047, 32.07746510000004 ] } },
{ "type": "Feature", "properties": { "OBJECTID": 7002719, "Name": "בית כנסת חסידי גור", "Place": "חידושי הרי\"ם 4, בני ברק", "Comments": null, "POINT_X": null, "POINT_Y": null, "fromTime": "2020\/10\/21 14:00:00", "toTime": "2020\/10\/21 16:30:00", "sourceOID": 1, "stayTimes": "מ 2020-10-21 17:00 עד 2020-10-21 19:30" }, "geometry": { "type": "Point", "coordinates": [ 34.835378500000047, 32.07746510000004 ] } },
{ "type": "Feature", "properties": { "OBJECTID": 7002720, "Name": null, "Place": "בית חולים לניאדו - נתניה", "Comments": "נתניה", "POINT_X": null, "POINT_Y": null, "fromTime": "2020\/10\/25 06:00:00", "toTime": "2020\/10\/25 15:59:59", "sourceOID": 1, "stayTimes": "מ 2020-10-25 08:00 עד 2020-10-25 18:00" }, "geometry": { "type": "Point", "coordinates": [ 34.857719, 32.346218 ] } },
{ "type": "Feature", "properties": { "OBJECTID": 7002721, "Name": "החוף בהרצליה", "Place": "חוף סידנא עלי", "Comments": null, "POINT_X": null, "POINT_Y": null, "fromTime": "2020\/10\/21 14:00:00", "toTime": "2020\/10\/21 15:30:00", "sourceOID": 1, "stayTimes": "מ 2020-10-21 17:00 עד 2020-10-21 18:30" }, "geometry": { "type": "Point", "coordinates": [ 34.80411040000007, 32.188248400000077 ] } },
{ "type": "Feature", "properties": { "OBJECTID": 7002722, "Name": "החוף נמצא בהרצליה", "Place": "חוף סידנא עלי", "Comments": null, "POINT_X": null, "POINT_Y": null, "fromTime": "2020\/10\/21 14:00:00", "toTime": "2020\/10\/21 15:30:00", "sourceOID": 1, "stayTimes": "מ 2020-10-21 17:00 עד 2020-10-21 18:30" }, "geometry": { "type": "Point", "coordinates": [ 34.80411040000007, 32.188248400000077 ] } },
{ "type": "Feature", "properties": { "OBJECTID": 7002723, "Name": "סופרמרקט יוחננוף", "Place": "האומן 10, ירושלים", "Comments": null, "POINT_X": null, "POINT_Y": null, "fromTime": "2020\/10\/22 16:30:00", "toTime": "2020\/10\/22 18:00:00", "sourceOID": 1, "stayTimes": "מ 2020-10-22 19:30 עד 2020-10-22 21:00" }, "geometry": { "type": "Point", "coordinates": [ 35.211090200000058, 31.748866700000065 ] } },
{ "type": "Feature", "properties": { "OBJECTID": 7002724, "Name": "בית מרקחת של קופ\"ח כללית", "Place": "שדרות תל חי 63, אשדוד", "Comments": null, "POINT_X": null, "POINT_Y": null, "fromTime": "2020\/10\/23 06:00:00", "toTime": "2020\/10\/23 06:59:59", "sourceOID": 1, "stayTimes": "מ 2020-10-23 09:00 עד 2020-10-23 10:00" }, "geometry": { "type": "Point", "coordinates": [ 34.631899200000078, 31.767023400000028 ] } },
{ "type": "Feature", "properties": { "OBJECTID": 7002725, "Name": null, "Place": "מרפאת יסקי - באר שבע", "Comments": "דוד המלך 24, באר שבע", "POINT_X": null, "POINT_Y": null, "fromTime": "2020\/10\/25 08:29:59", "toTime": "2020\/10\/25 10:30:00", "sourceOID": 1, "stayTimes": "מ 2020-10-25 10:30 עד 2020-10-25 12:30" }, "geometry": { "type": "Point", "coordinates": [ 34.792045200000075, 31.264247700000055 ] } },
{ "type": "Feature", "properties": { "OBJECTID": 7002726, "Name": null, "Place": "קניון אביה - באר שבע", "Comments": "מבצע יואב 86, באר שבע", "POINT_X": null, "POINT_Y": null, "fromTime": "2020\/10\/22 06:59:59", "toTime": "2020\/10\/22 08:00:00", "sourceOID": 1, "stayTimes": "מ 2020-10-22 10:00 עד 2020-10-22 11:00" }, "geometry": { "type": "Point", "coordinates": [ 34.778393700000038, 31.265626100000077 ] } },
{ "type": "Feature", "properties": { "OBJECTID": 7002727, "Name": null, "Place": "יוחננוף Yochananof - ירושלים", "Comments": "האומן 10, ירושלים", "POINT_X": null, "POINT_Y": null, "fromTime": "2020\/10\/23 06:59:59", "toTime": "2020\/10\/23 07:30:00", "sourceOID": 1, "stayTimes": "מ 2020-10-23 10:00 עד 2020-10-23 10:30" }, "geometry": { "type": "Point", "coordinates": [ 35.211090200000058, 31.748866700000065 ] } },
{ "type": "Feature", "properties": { "OBJECTID": 7002728, "Name": null, "Place": "קופת חולים מאוחדת סניף אגמים - אשקלון", "Comments": "בקעת רימון 12, אשקלון", "POINT_X": null, "POINT_Y": null, "fromTime": "2020\/10\/25 06:00:00", "toTime": "2020\/10\/25 07:30:00", "sourceOID": 1, "stayTimes": "מ 2020-10-25 08:00 עד 2020-10-25 09:30" }, "geometry": { "type": "Point", "coordinates": [ 34.567487100000051, 31.650212300000078 ] } },
{ "type": "Feature", "properties": { "OBJECTID": 7002729, "Name": null, "Place": "אושר עד גבעת שאול - ירושלים", "Comments": "בית הדפוס 29, ירושלים", "POINT_X": null, "POINT_Y": null, "fromTime": "2020\/10\/23 10:44:59", "toTime": "2020\/10\/23 12:00:00", "sourceOID": 1, "stayTimes": "מ 2020-10-23 13:45 עד 2020-10-23 15:00" }, "geometry": { "type": "Point", "coordinates": [ 35.183018900000036, 31.785258800000065 ] } },
{ "type": "Feature", "properties": { "OBJECTID": 7002730, "Name": null, "Place": "יש חסד - בני ברק", "Comments": "עזרא 21, בני ברק", "POINT_X": null, "POINT_Y": null, "fromTime": "2020\/10\/21 09:59:59", "toTime": "2020\/10\/21 10:30:00", "sourceOID": 1, "stayTimes": "מ 2020-10-21 13:00 עד 2020-10-21 13:30" }, "geometry": { "type": "Point", "coordinates": [ 34.838414300000068, 32.079161300000067 ] } },
{ "type": "Feature", "properties": { "OBJECTID": 7002731, "Name": null, "Place": "מחסני השוק - Be'er Sheva", "Comments": "Beit Eshel Street , Be'er Sheva", "POINT_X": null, "POINT_Y": null, "fromTime": "2020\/10\/23 06:45:00", "toTime": "2020\/10\/23 07:05:00", "sourceOID": 1, "stayTimes": "מ 2020-10-23 09:45 עד 2020-10-23 10:05" }, "geometry": { "type": "Point", "coordinates": [ 34.793826300000035, 31.239958500000057 ] } },
{ "type": "Feature", "properties": { "OBJECTID": 7002732, "Name": null, "Place": "מוסך הזוהר - נתניה", "Comments": "נתניה", "POINT_X": null, "POINT_Y": null, "fromTime": "2020\/10\/22 06:00:00", "toTime": "2020\/10\/22 06:30:00", "sourceOID": 1, "stayTimes": "מ 2020-10-22 09:00 עד 2020-10-22 09:30" }, "geometry": { "type": "Point", "coordinates": [ 34.864100200000053, 32.280709200000047 ] } },
{ "type": "Feature", "properties": { "OBJECTID": 7002733, "Name": null, "Place": "א&א מחשבים וסלולר - נתניה", "Comments": "הצורן 4, נתניה", "POINT_X": null, "POINT_Y": null, "fromTime": "2020\/10\/22 06:59:59", "toTime": "2020\/10\/22 09:00:00", "sourceOID": 1, "stayTimes": "מ 2020-10-22 10:00 עד 2020-10-22 12:00" }, "geometry": { "type": "Point", "coordinates": [ 34.86589, 32.288078700000028 ] } },
{ "type": "Feature", "properties": { "OBJECTID": 7002734, "Name": null, "Place": "רמי לוי שיווק השקמה - נתניה", "Comments": "המחקר , נתניה", "POINT_X": null, "POINT_Y": null, "fromTime": "2020\/10\/23 06:00:00", "toTime": "2020\/10\/23 06:59:59", "sourceOID": 1, "stayTimes": "מ 2020-10-23 09:00 עד 2020-10-23 10:00" }, "geometry": { "type": "Point", "coordinates": [ 34.862459600000079, 32.292640300000073 ] } },
{ "type": "Feature", "properties": { "OBJECTID": 7002735, "Name": null, "Place": "שוק המייסדים - אבן יהודה", "Comments": "המייסדים 66, אבן יהודה", "POINT_X": null, "POINT_Y": null, "fromTime": "2020\/10\/23 06:59:59", "toTime": "2020\/10\/23 08:00:00", "sourceOID": 1, "stayTimes": "מ 2020-10-23 10:00 עד 2020-10-23 11:00" }, "geometry": { "type": "Point", "coordinates": [ 34.887873700000057, 32.269793900000025 ] } },
{ "type": "Feature", "properties": { "OBJECTID": 7002736, "Name": null, "Place": "הקולה בעיר - אבן יהודה", "Comments": "ההסתדרות 2, אבן יהודה", "POINT_X": null, "POINT_Y": null, "fromTime": "2020\/10\/23 08:00:00", "toTime": "2020\/10\/23 08:29:59", "sourceOID": 1, "stayTimes": "מ 2020-10-23 11:00 עד 2020-10-23 11:30" }, "geometry": { "type": "Point", "coordinates": [ 34.888581300000055, 32.269869100000051 ] } },
{ "type": "Feature", "properties": { "OBJECTID": 7002737, "Name": null, "Place": "האחים מרקט - נתניה", "Comments": "בורוכוב 9, נתניה", "POINT_X": null, "POINT_Y": null, "fromTime": "2020\/10\/22 03:59:59", "toTime": "2020\/10\/22 04:30:00", "sourceOID": 1, "stayTimes": "מ 2020-10-22 07:00 עד 2020-10-22 07:30" }, "geometry": { "type": "Point", "coordinates": [ 34.856023700000037, 32.336869300000046 ] } },
{ "type": "Feature", "properties": { "OBJECTID": 7002738, "Name": null, "Place": "מחסני השוק - נתניה", "Comments": "הרב הרצוג 23, נתניה", "POINT_X": null, "POINT_Y": null, "fromTime": "2020\/10\/22 16:30:00", "toTime": "2020\/10\/22 17:00:00", "sourceOID": 1, "stayTimes": "מ 2020-10-22 19:30 עד 2020-10-22 20:00" }, "geometry": { "type": "Point", "coordinates": [ 34.859462, 32.342414100000042 ] } },
{ "type": "Feature", "properties": { "OBJECTID": 7002739, "Name": null, "Place": "שוק העיר - קרית גת", "Comments": "דרך הדרום 13, קרית גת", "POINT_X": null, "POINT_Y": null, "fromTime": "2020\/10\/22 18:00:00", "toTime": "2020\/10\/22 18:59:59", "sourceOID": 1, "stayTimes": "מ 2020-10-22 21:00 עד 2020-10-22 22:00" }, "geometry": { "type": "Point", "coordinates": [ 34.774036700000067, 31.604398500000059 ] } },
{ "type": "Feature", "properties": { "OBJECTID": 7002740, "Name": null, "Place": "סופר-פארם ביג קרית גת - קרית גת", "Comments": "דרך הדרום 3, קרית גת", "POINT_X": null, "POINT_Y": null, "fromTime": "2020\/10\/21 15:00:00", "toTime": "2020\/10\/21 15:59:59", "sourceOID": 1, "stayTimes": "מ 2020-10-21 18:00 עד 2020-10-21 19:00" }, "geometry": { "type": "Point", "coordinates": [ 34.770896300000061, 31.602447600000062 ] } },
{ "type": "Feature", "properties": { "OBJECTID": 7002741, "Name": null, "Place": "המרכז הרפואי האוניברסיטאי סורוקה - באר שבע", "Comments": "שדרות יצחק רגר 151, באר שבע", "POINT_X": null, "POINT_Y": null, "fromTime": "2020\/10\/22 05:29:59", "toTime": "2020\/10\/22 06:59:59", "sourceOID": 1, "stayTimes": "מ 2020-10-22 08:30 עד 2020-10-22 10:00" }, "geometry": { "type": "Point", "coordinates": [ 34.79940090000008, 31.25806330000006 ] } },
{ "type": "Feature", "properties": { "OBJECTID": 7002742, "Name": null, "Place": "ויקטורי - באר שבע", "Comments": "שדרות דויד בן גוריון 15, באר שבע", "POINT_X": null, "POINT_Y": null, "fromTime": "2020\/10\/21 09:59:59", "toTime": "2020\/10\/21 10:30:00", "sourceOID": 1, "stayTimes": "מ 2020-10-21 13:00 עד 2020-10-21 13:30" }, "geometry": { "type": "Point", "coordinates": [ 34.814359600000046, 31.254773900000032 ] } },
{ "type": "Feature", "properties": { "OBJECTID": 7002743, "Name": null, "Place": "שוק עירוני - באר שבע", "Comments": "באר שבע", "POINT_X": null, "POINT_Y": null, "fromTime": "2020\/10\/21 10:30:00", "toTime": "2020\/10\/21 11:00:00", "sourceOID": 1, "stayTimes": "מ 2020-10-21 13:30 עד 2020-10-21 14:00" }, "geometry": { "type": "Point", "coordinates": [ 34.796446900000035, 31.240548200000035 ] } },
{ "type": "Feature", "properties": { "OBJECTID": 7002744, "Name": null, "Place": "חד - פעמית - ירושלים", "Comments": "גבעת שאול 23, ירושלים", "POINT_X": null, "POINT_Y": null, "fromTime": "2020\/10\/22 05:00:00", "toTime": "2020\/10\/22 05:29:59", "sourceOID": 1, "stayTimes": "מ 2020-10-22 08:00 עד 2020-10-22 08:30" }, "geometry": { "type": "Point", "coordinates": [ 35.191339200000073, 31.792503900000042 ] } },
{ "type": "Feature", "properties": { "OBJECTID": 7002745, "Name": null, "Place": "הום סנטר תלפיות - ירושלים", "Comments": "גנרל פייר קניג 24, ירושלים", "POINT_X": null, "POINT_Y": null, "fromTime": "2020\/10\/23 06:00:00", "toTime": "2020\/10\/23 06:30:00", "sourceOID": 1, "stayTimes": "מ 2020-10-23 09:00 עד 2020-10-23 09:30" }, "geometry": { "type": "Point", "coordinates": [ 35.213509200000033, 31.753307600000028 ] } },
{ "type": "Feature", "properties": { "OBJECTID": 7002746, "Name": null, "Place": "ויקטורי - אשקלון", "Comments": "שדרות דוד בן גוריון 17, אשקלון", "POINT_X": null, "POINT_Y": null, "fromTime": "2020\/10\/25 07:30:00", "toTime": "2020\/10\/25 08:00:00", "sourceOID": 1, "stayTimes": "מ 2020-10-25 09:30 עד 2020-10-25 10:00" }, "geometry": { "type": "Point", "coordinates": [ 34.563275200000078, 31.664189400000055 ] } },
{ "type": "Feature", "properties": { "OBJECTID": 7002747, "Name": null, "Place": "זול ובגדול - ירושלים", "Comments": "יוסף חכמי 30, ירושלים", "POINT_X": null, "POINT_Y": null, "fromTime": "2020\/10\/23 11:00:00", "toTime": "2020\/10\/23 11:29:59", "sourceOID": 1, "stayTimes": "מ 2020-10-23 14:00 עד 2020-10-23 14:30" }, "geometry": { "type": "Point", "coordinates": [ 35.190962500000069, 31.762325100000055 ] } },
{ "type": "Feature", "properties": { "OBJECTID": 7002748, "Name": null, "Place": "רוגוזין 25, אשדוד", "Comments": null, "POINT_X": null, "POINT_Y": null, "fromTime": "2020\/10\/21 15:00:00", "toTime": "2020\/10\/21 15:30:00", "sourceOID": 1, "stayTimes": "מ 2020-10-21 18:00 עד 2020-10-21 18:30" }, "geometry": { "type": "Point", "coordinates": [ 34.642613400000073, 31.803908200000023 ] } },
{ "type": "Feature", "properties": { "OBJECTID": 7002749, "Name": null, "Place": "מרכז מסחרי ד׳ - אשדוד", "Comments": "חיים משה שפירא , אשדוד", "POINT_X": null, "POINT_Y": null, "fromTime": "2020\/10\/21 08:00:00", "toTime": "2020\/10\/21 08:29:59", "sourceOID": 1, "stayTimes": "מ 2020-10-21 11:00 עד 2020-10-21 11:30" }, "geometry": { "type": "Point", "coordinates": [ 34.641506, 31.800620800000047 ] } },
{ "type": "Feature", "properties": { "OBJECTID": 7002750, "Name": null, "Place": "דליקטסן כוכב הצפון - Delicatessen - תל אביב יפו", "Comments": "מאיר יערי 19, תל אביב יפו", "POINT_X": null, "POINT_Y": null, "fromTime": "2020\/10\/23 09:59:59", "toTime": "2020\/10\/23 11:00:00", "sourceOID": 1, "stayTimes": "מ 2020-10-23 13:00 עד 2020-10-23 14:00" }, "geometry": { "type": "Point", "coordinates": [ 34.787721500000032, 32.099927500000035 ] } },
{ "type": "Feature", "properties": { "OBJECTID": 7002751, "Name": null, "Place": "דליקטסן כוכב הצפון - Delicatessen - תל אביב יפו", "Comments": "מאיר יערי 19, תל אביב יפו", "POINT_X": null, "POINT_Y": null, "fromTime": "2020\/10\/21 09:00:00", "toTime": "2020\/10\/21 09:59:59", "sourceOID": 1, "stayTimes": "מ 2020-10-21 12:00 עד 2020-10-21 13:00" }, "geometry": { "type": "Point", "coordinates": [ 34.787721500000032, 32.099927500000035 ] } },
{ "type": "Feature", "properties": { "OBJECTID": 7002752, "Name": null, "Place": "שדרות בן גוריון 6, חיפה", "Comments": null, "POINT_X": null, "POINT_Y": null, "fromTime": "2020\/10\/21 03:59:59", "toTime": "2020\/10\/21 16:30:00", "sourceOID": 1, "stayTimes": "מ 2020-10-21 07:00 עד 2020-10-21 19:30" }, "geometry": { "type": "Point", "coordinates": [ 34.991948600000057, 32.823168900000042 ] } },
{ "type": "Feature", "properties": { "OBJECTID": 7002753, "Name": null, "Place": "שדרות בן גוריון 6, חיפה", "Comments": null, "POINT_X": null, "POINT_Y": null, "fromTime": "2020\/10\/22 03:59:59", "toTime": "2020\/10\/22 17:00:00", "sourceOID": 1, "stayTimes": "מ 2020-10-22 07:00 עד 2020-10-22 20:00" }, "geometry": { "type": "Point", "coordinates": [ 34.991948600000057, 32.823168900000042 ] } },
{ "type": "Feature", "properties": { "OBJECTID": 7002754, "Name": null, "Place": "רוטשילד 15, ראשון לציון", "Comments": null, "POINT_X": null, "POINT_Y": null, "fromTime": "2020\/10\/25 14:00:00", "toTime": "2020\/10\/25 14:29:59", "sourceOID": 1, "stayTimes": "מ 2020-10-25 16:00 עד 2020-10-25 16:30" }, "geometry": { "type": "Point", "coordinates": [ 34.805300900000077, 31.964432200000033 ] } },
{ "type": "Feature", "properties": { "OBJECTID": 7002755, "Name": null, "Place": "בי\"ס עמל - חולון", "Comments": "הבנים 16, חולון", "POINT_X": null, "POINT_Y": null, "fromTime": "2020\/10\/25 06:00:00", "toTime": "2020\/10\/25 15:59:59", "sourceOID": 1, "stayTimes": "מ 2020-10-25 08:00 עד 2020-10-25 18:00" }, "geometry": { "type": "Point", "coordinates": [ 34.763818400000048, 32.029585600000075 ] } },
{ "type": "Feature", "properties": { "OBJECTID": 7002756, "Name": null, "Place": "בי\"ס עמל - חולון", "Comments": "הבנים 16, חולון", "POINT_X": null, "POINT_Y": null, "fromTime": "2020\/10\/26 06:00:00", "toTime": "2020\/10\/26 09:00:00", "sourceOID": 1, "stayTimes": "מ 2020-10-26 08:00 עד 2020-10-26 11:00" }, "geometry": { "type": "Point", "coordinates": [ 34.763818400000048, 32.029585600000075 ] } },
{ "type": "Feature", "properties": { "OBJECTID": 7002757, "Name": null, "Place": "בי\"ס עמל - חולון", "Comments": "הבנים 16, חולון", "POINT_X": null, "POINT_Y": null, "fromTime": "2020\/10\/21 05:00:00", "toTime": "2020\/10\/21 15:00:00", "sourceOID": 1, "stayTimes": "מ 2020-10-21 08:00 עד 2020-10-21 18:00" }, "geometry": { "type": "Point", "coordinates": [ 34.763818400000048, 32.029585600000075 ] } },
{ "type": "Feature", "properties": { "OBJECTID": 7002758, "Name": null, "Place": "בי\"ס עמל - חולון", "Comments": "הבנים 16, חולון", "POINT_X": null, "POINT_Y": null, "fromTime": "2020\/10\/22 05:00:00", "toTime": "2020\/10\/22 15:00:00", "sourceOID": 1, "stayTimes": "מ 2020-10-22 08:00 עד 2020-10-22 18:00" }, "geometry": { "type": "Point", "coordinates": [ 34.763818400000048, 32.029585600000075 ] } },
{ "type": "Feature", "properties": { "OBJECTID": 7002759, "Name": null, "Place": "אושר עד - ירושלים", "Comments": "הרכבים 8, ירושלים", "POINT_X": null, "POINT_Y": null, "fromTime": "2020\/10\/22 07:30:00", "toTime": "2020\/10\/22 08:29:59", "sourceOID": 1, "stayTimes": "מ 2020-10-22 10:30 עד 2020-10-22 11:30" }, "geometry": { "type": "Point", "coordinates": [ 35.21300430000008, 31.753487800000073 ] } },
{ "type": "Feature", "properties": { "OBJECTID": 7002760, "Name": null, "Place": "שגב אספקה - קרית ים", "Comments": "מרטין בובר 8, קרית ים", "POINT_X": null, "POINT_Y": null, "fromTime": "2020\/10\/23 08:29:59", "toTime": "2020\/10\/23 09:00:00", "sourceOID": 1, "stayTimes": "מ 2020-10-23 11:30 עד 2020-10-23 12:00" }, "geometry": { "type": "Point", "coordinates": [ 35.06863, 32.843027200000051 ] } },
{ "type": "Feature", "properties": { "OBJECTID": 7002761, "Name": null, "Place": "אושר עד - באר שבע", "Comments": "הקוצר 15, באר שבע", "POINT_X": null, "POINT_Y": null, "fromTime": "2020\/10\/21 18:00:00", "toTime": "2020\/10\/21 20:00:00", "sourceOID": 1, "stayTimes": "מ 2020-10-21 21:00 עד 2020-10-21 23:00" }, "geometry": { "type": "Point", "coordinates": [ 34.811010500000066, 31.213328500000046 ] } },
{ "type": "Feature", "properties": { "OBJECTID": 7002762, "Name": null, "Place": "Super Ye`elim Russian Store - באר שבע", "Comments": "שדרות יעלים 90, באר שבע", "POINT_X": null, "POINT_Y": null, "fromTime": "2020\/10\/26 05:00:00", "toTime": "2020\/10\/26 05:29:59", "sourceOID": 1, "stayTimes": "מ 2020-10-26 07:00 עד 2020-10-26 07:30" }, "geometry": { "type": "Point", "coordinates": [ 34.776171700000077, 31.255073200000027 ] } },
{ "type": "Feature", "properties": { "OBJECTID": 7002763, "Name": null, "Place": "Магазин Радак - Beersheba", "Comments": "Rahvat Radak 11, Beersheba", "POINT_X": null, "POINT_Y": null, "fromTime": "2020\/10\/25 10:30:00", "toTime": "2020\/10\/25 11:00:00", "sourceOID": 1, "stayTimes": "מ 2020-10-25 12:30 עד 2020-10-25 13:00" }, "geometry": { "type": "Point", "coordinates": [ 34.772201600000074, 31.256707 ] } },
{ "type": "Feature", "properties": { "OBJECTID": 7002764, "Name": null, "Place": "רמי לוי שיווק השקמה - באר שבע - באר שבע", "Comments": "הע\"ל , באר שבע", "POINT_X": null, "POINT_Y": null, "fromTime": "2020\/10\/22 12:00:00", "toTime": "2020\/10\/22 14:00:00", "sourceOID": 1, "stayTimes": "מ 2020-10-22 15:00 עד 2020-10-22 17:00" }, "geometry": { "type": "Point", "coordinates": [ 34.79728730000005, 31.232927300000028 ] } },
{ "type": "Feature", "properties": { "OBJECTID": 7002765, "Name": null, "Place": "מחסני השוק - באר שבע", "Comments": "מבצע עובדה 2, באר שבע", "POINT_X": null, "POINT_Y": null, "fromTime": "2020\/10\/23 03:59:59", "toTime": "2020\/10\/23 05:00:00", "sourceOID": 1, "stayTimes": "מ 2020-10-23 07:00 עד 2020-10-23 08:00" }, "geometry": { "type": "Point", "coordinates": [ 34.780394100000024, 31.259555900000066 ] } },
{ "type": "Feature", "properties": { "OBJECTID": 7002766, "Name": null, "Place": "נחליאלי‬‎ 10, מודיעין מכבים רעות", "Comments": null, "POINT_X": null, "POINT_Y": null, "fromTime": "2020\/10\/21 04:30:00", "toTime": "2020\/10\/21 11:29:59", "sourceOID": 1, "stayTimes": "מ 2020-10-21 07:30 עד 2020-10-21 14:30" }, "geometry": { "type": "Point", "coordinates": [ 34.994470100000058, 31.89692 ] } },
{ "type": "Feature", "properties": { "OBJECTID": 7002767, "Name": null, "Place": "קינגסטור כרמיאל - כרמיאל", "Comments": "היוצרים 15, כרמיאל", "POINT_X": null, "POINT_Y": null, "fromTime": "2020\/10\/21 12:00:00", "toTime": "2020\/10\/21 14:29:59", "sourceOID": 1, "stayTimes": "מ 2020-10-21 15:00 עד 2020-10-21 17:30" }, "geometry": { "type": "Point", "coordinates": [ 35.312698300000079, 32.92549710000003 ] } },
{ "type": "Feature", "properties": { "OBJECTID": 7002768, "Name": null, "Place": "הרב לנדרס 20, רמת גן", "Comments": null, "POINT_X": null, "POINT_Y": null, "fromTime": "2020\/10\/21 05:00:00", "toTime": "2020\/10\/21 11:00:00", "sourceOID": 1, "stayTimes": "מ 2020-10-21 08:00 עד 2020-10-21 14:00" }, "geometry": { "type": "Point", "coordinates": [ 34.836756700000024, 32.070504200000073 ] } },
{ "type": "Feature", "properties": { "OBJECTID": 7002769, "Name": null, "Place": "הרב לנדרס 20, רמת גן", "Comments": null, "POINT_X": null, "POINT_Y": null, "fromTime": "2020\/10\/22 05:00:00", "toTime": "2020\/10\/22 11:00:00", "sourceOID": 1, "stayTimes": "מ 2020-10-22 08:00 עד 2020-10-22 14:00" }, "geometry": { "type": "Point", "coordinates": [ 34.836756700000024, 32.070504200000073 ] } },
{ "type": "Feature", "properties": { "OBJECTID": 7002770, "Name": null, "Place": "חצי חינם - ראשון לציון", "Comments": "ראשון לציון", "POINT_X": null, "POINT_Y": null, "fromTime": "2020\/10\/21 12:00:00", "toTime": "2020\/10\/21 19:30:00", "sourceOID": 1, "stayTimes": "מ 2020-10-21 15:00 עד 2020-10-21 22:30" }, "geometry": { "type": "Point", "coordinates": [ 34.772862800000041, 31.986744600000065 ] } },
{ "type": "Feature", "properties": { "OBJECTID": 7002771, "Name": null, "Place": "חצי חינם - ראשון לציון", "Comments": "ראשון לציון", "POINT_X": null, "POINT_Y": null, "fromTime": "2020\/10\/22 12:00:00", "toTime": "2020\/10\/22 18:59:59", "sourceOID": 1, "stayTimes": "מ 2020-10-22 15:00 עד 2020-10-22 22:00" }, "geometry": { "type": "Point", "coordinates": [ 34.772862800000041, 31.986744600000065 ] } },
{ "type": "Feature", "properties": { "OBJECTID": 7002772, "Name": null, "Place": "חצי חינם - ראשון לציון", "Comments": "ראשון לציון", "POINT_X": null, "POINT_Y": null, "fromTime": "2020\/10\/23 03:59:59", "toTime": "2020\/10\/23 11:29:59", "sourceOID": 1, "stayTimes": "מ 2020-10-23 07:00 עד 2020-10-23 14:30" }, "geometry": { "type": "Point", "coordinates": [ 34.772862800000041, 31.986744600000065 ] } },
{ "type": "Feature", "properties": { "OBJECTID": 7002773, "Name": null, "Place": "דגניה 40, אור יהודה", "Comments": null, "POINT_X": null, "POINT_Y": null, "fromTime": "2020\/10\/21 04:15:00", "toTime": "2020\/10\/21 05:29:59", "sourceOID": 1, "stayTimes": "מ 2020-10-21 07:15 עד 2020-10-21 08:30" }, "geometry": { "type": "Point", "coordinates": [ 34.86234550000006, 32.024509100000046 ] } },
{ "type": "Feature", "properties": { "OBJECTID": 7002774, "Name": null, "Place": "דגניה 40, אור יהודה", "Comments": null, "POINT_X": null, "POINT_Y": null, "fromTime": "2020\/10\/21 14:45:00", "toTime": "2020\/10\/21 15:30:00", "sourceOID": 1, "stayTimes": "מ 2020-10-21 17:45 עד 2020-10-21 18:30" }, "geometry": { "type": "Point", "coordinates": [ 34.86234550000006, 32.024509100000046 ] } },
{ "type": "Feature", "properties": { "OBJECTID": 7002775, "Name": null, "Place": "דגניה 40, אור יהודה", "Comments": null, "POINT_X": null, "POINT_Y": null, "fromTime": "2020\/10\/22 04:15:00", "toTime": "2020\/10\/22 05:29:59", "sourceOID": 1, "stayTimes": "מ 2020-10-22 07:15 עד 2020-10-22 08:30" }, "geometry": { "type": "Point", "coordinates": [ 34.86234550000006, 32.024509100000046 ] } },
{ "type": "Feature", "properties": { "OBJECTID": 7002776, "Name": null, "Place": "סופר טייבה - טייבה", "Comments": "טייבה", "POINT_X": null, "POINT_Y": null, "fromTime": "2020\/10\/24 09:00:00", "toTime": "2020\/10\/24 09:30:00", "sourceOID": 1, "stayTimes": "מ 2020-10-24 12:00 עד 2020-10-24 12:30" }, "geometry": { "type": "Point", "coordinates": [ 35.003886200000068, 32.265583700000036 ] } },
{ "type": "Feature", "properties": { "OBJECTID": 7002777, "Name": null, "Place": "בית חולים ברזילי - אשקלון", "Comments": "אשקלון", "POINT_X": null, "POINT_Y": null, "fromTime": "2020\/10\/24 15:59:59", "toTime": "2020\/10\/24 18:59:59", "sourceOID": 1, "stayTimes": "מ 2020-10-24 19:00 עד 2020-10-24 22:00" }, "geometry": { "type": "Point", "coordinates": [ 34.562428, 31.663252 ] } },
{ "type": "Feature", "properties": { "OBJECTID": 7002778, "Name": null, "Place": "רמי לוי שיווק השקמה - מעלה אדומים - מעלה אדומים", "Comments": "איתם 1, מעלה אדומים", "POINT_X": null, "POINT_Y": null, "fromTime": "2020\/10\/23 06:59:59", "toTime": "2020\/10\/23 07:30:00", "sourceOID": 1, "stayTimes": "מ 2020-10-23 10:00 עד 2020-10-23 10:30" }, "geometry": { "type": "Point", "coordinates": [ 35.333785500000033, 31.793726200000037 ] } },
{ "type": "Feature", "properties": { "OBJECTID": 7002779, "Name": null, "Place": "אושר עד - ירושלים", "Comments": "שמגר 16, ירושלים", "POINT_X": null, "POINT_Y": null, "fromTime": "2020\/10\/22 06:59:59", "toTime": "2020\/10\/22 09:30:00", "sourceOID": 1, "stayTimes": "מ 2020-10-22 10:00 עד 2020-10-22 12:30" }, "geometry": { "type": "Point", "coordinates": [ 35.208247300000039, 31.79484 ] } },
{ "type": "Feature", "properties": { "OBJECTID": 7002780, "Name": null, "Place": "הום סנטר תלפיות - ירושלים", "Comments": "גנרל פייר קניג 24, ירושלים", "POINT_X": null, "POINT_Y": null, "fromTime": "2020\/10\/24 10:30:00", "toTime": "2020\/10\/24 11:00:00", "sourceOID": 1, "stayTimes": "מ 2020-10-24 13:30 עד 2020-10-24 14:00" }, "geometry": { "type": "Point", "coordinates": [ 35.213509200000033, 31.753307600000028 ] } },
{ "type": "Feature", "properties": { "OBJECTID": 7002781, "Name": null, "Place": "שופרסל דיל EXTRA - באר שבע", "Comments": "דוד וולפסון 13, באר שבע", "POINT_X": null, "POINT_Y": null, "fromTime": "2020\/10\/23 00:59:59", "toTime": "2020\/10\/23 08:00:00", "sourceOID": 1, "stayTimes": "מ 2020-10-23 04:00 עד 2020-10-23 11:00" }, "geometry": { "type": "Point", "coordinates": [ 34.798116300000061, 31.245493 ] } },
{ "type": "Feature", "properties": { "OBJECTID": 7002782, "Name": null, "Place": "רמי לוי אשקלון צה\"ל 99 - אשקלון", "Comments": "צה\"ל 99, אשקלון", "POINT_X": null, "POINT_Y": null, "fromTime": "2020\/10\/22 15:30:00", "toTime": "2020\/10\/22 15:59:59", "sourceOID": 1, "stayTimes": "מ 2020-10-22 18:30 עד 2020-10-22 19:00" }, "geometry": { "type": "Point", "coordinates": [ 34.598713, 31.660601400000076 ] } },
{ "type": "Feature", "properties": { "OBJECTID": 7002783, "Name": null, "Place": "בני ברית 22, ירושלים", "Comments": null, "POINT_X": null, "POINT_Y": null, "fromTime": "2020\/10\/22 05:00:00", "toTime": "2020\/10\/22 06:59:59", "sourceOID": 1, "stayTimes": "מ 2020-10-22 08:00 עד 2020-10-22 10:00" }, "geometry": { "type": "Point", "coordinates": [ 35.219574300000033, 31.78604770000004 ] } },
{ "type": "Feature", "properties": { "OBJECTID": 7002784, "Name": null, "Place": "בית חולים אנגלי נצרת - נצרת", "Comments": "נצרת", "POINT_X": null, "POINT_Y": null, "fromTime": "2020\/10\/24 12:00:00", "toTime": "2020\/10\/24 12:59:59", "sourceOID": 1, "stayTimes": "מ 2020-10-24 15:00 עד 2020-10-24 16:00" }, "geometry": { "type": "Point", "coordinates": [ 35.29214010000004, 32.702209 ] } },
{ "type": "Feature", "properties": { "OBJECTID": 7002785, "Name": null, "Place": "אושר עד - ירושלים", "Comments": "שמגר 16, ירושלים", "POINT_X": null, "POINT_Y": null, "fromTime": "2020\/10\/21 12:00:00", "toTime": "2020\/10\/21 12:59:59", "sourceOID": 1, "stayTimes": "מ 2020-10-21 15:00 עד 2020-10-21 16:00" }, "geometry": { "type": "Point", "coordinates": [ 35.208247300000039, 31.79484 ] } },
{ "type": "Feature", "properties": { "OBJECTID": 7002786, "Name": "", "Place": "אושר עד - נוף הגליל", "Comments": "גלבוע 1, נוף הגליל", "POINT_X": null, "POINT_Y": null, "fromTime": "2020\/10\/23 09:59:59", "toTime": "2020\/10\/23 11:00:00", "sourceOID": 1, "stayTimes": "מ 2020-10-23 13:00 עד 2020-10-23 14:00" }, "geometry": { "type": "Point", "coordinates": [ 35.318558200000041, 32.704426800000078 ] } },
{ "type": "Feature", "properties": { "OBJECTID": 7002787, "Name": null, "Place": "כל בו חצי חינם - חולון", "Comments": "המרכבה 31, חולון", "POINT_X": null, "POINT_Y": null, "fromTime": "2020\/10\/21 09:00:00", "toTime": "2020\/10\/21 12:59:59", "sourceOID": 1, "stayTimes": "מ 2020-10-21 12:00 עד 2020-10-21 16:00" }, "geometry": { "type": "Point", "coordinates": [ 34.8084, 32.0109 ] } },
{ "type": "Feature", "properties": { "OBJECTID": 7002788, "Name": "מקס סטוק", "Place": "מול 7 - שדרות", "Comments": "דרך מנחם בגין , שדרות", "POINT_X": null, "POINT_Y": null, "fromTime": "2020\/10\/23 11:00:00", "toTime": "2020\/10\/23 11:29:59", "sourceOID": 1, "stayTimes": "מ 2020-10-23 14:00 עד 2020-10-23 14:30" }, "geometry": { "type": "Point", "coordinates": [ 34.589306200000067, 31.51631610000004 ] } },
{ "type": "Feature", "properties": { "OBJECTID": 7002789, "Name": null, "Place": "אושר עד לוד - לוד", "Comments": "בת שבע 1, לוד", "POINT_X": null, "POINT_Y": null, "fromTime": "2020\/10\/21 12:59:59", "toTime": "2020\/10\/21 14:00:00", "sourceOID": 1, "stayTimes": "מ 2020-10-21 16:00 עד 2020-10-21 17:00" }, "geometry": { "type": "Point", "coordinates": [ 34.890452200000027, 31.95398380000006 ] } },
{ "type": "Feature", "properties": { "OBJECTID": 7002790, "Name": null, "Place": "שופרסל שלי גד מכנס - פתח תקווה", "Comments": "רוטשילד 180, פתח תקווה", "POINT_X": null, "POINT_Y": null, "fromTime": "2020\/10\/22 03:59:59", "toTime": "2020\/10\/22 12:59:59", "sourceOID": 1, "stayTimes": "מ 2020-10-22 07:00 עד 2020-10-22 16:00" }, "geometry": { "type": "Point", "coordinates": [ 34.884659100000079, 32.076487400000076 ] } },
{ "type": "Feature", "properties": { "OBJECTID": 7002791, "Name": null, "Place": "בסיס פלמחים", "Comments": null, "POINT_X": null, "POINT_Y": null, "fromTime": "2020\/10\/21 05:00:00", "toTime": "2020\/10\/21 14:00:00", "sourceOID": 1, "stayTimes": "מ 2020-10-21 08:00 עד 2020-10-21 17:00" }, "geometry": { "type": "Point", "coordinates": [ 34.680179700000053, 31.884686100000067 ] } },
{ "type": "Feature", "properties": { "OBJECTID": 7002792, "Name": null, "Place": "בוזה - תל אביב יפו", "Comments": "החשמונאים 91, תל אביב יפו", "POINT_X": null, "POINT_Y": null, "fromTime": "2020\/10\/23 09:30:00", "toTime": "2020\/10\/23 09:59:59", "sourceOID": 1, "stayTimes": "מ 2020-10-23 12:30 עד 2020-10-23 13:00" }, "geometry": { "type": "Point", "coordinates": [ 34.783338100000037, 32.069704300000069 ] } },
{ "type": "Feature", "properties": { "OBJECTID": 7002793, "Name": null, "Place": "אבני נזר 59, מודיעין עילית", "Comments": null, "POINT_X": null, "POINT_Y": null, "fromTime": "2020\/10\/25 15:00:00", "toTime": "2020\/10\/25 15:30:00", "sourceOID": 1, "stayTimes": "מ 2020-10-25 17:00 עד 2020-10-25 17:30" }, "geometry": { "type": "Point", "coordinates": [ 35.039746800000046, 31.930604 ] } },
{ "type": "Feature", "properties": { "OBJECTID": 7002794, "Name": "", "Place": "כללית דרומית - נצרת עילית - נוף הגליל", "Comments": "הגפן 16, נוף הגליל", "POINT_X": null, "POINT_Y": null, "fromTime": "2020\/10\/22 10:30:00", "toTime": "2020\/10\/22 11:29:59", "sourceOID": 1, "stayTimes": "מ 2020-10-22 13:30 עד 2020-10-22 14:30" }, "geometry": { "type": "Point", "coordinates": [ 35.316883300000029, 32.693388800000037 ] } },
{ "type": "Feature", "properties": { "OBJECTID": 7002795, "Name": "היפר כהן", "Place": "מול 7 - שדרות", "Comments": "דרך מנחם בגין , שדרות", "POINT_X": null, "POINT_Y": null, "fromTime": "2020\/10\/23 10:30:00", "toTime": "2020\/10\/23 11:00:00", "sourceOID": 1, "stayTimes": "מ 2020-10-23 13:30 עד 2020-10-23 14:00" }, "geometry": { "type": "Point", "coordinates": [ 34.589306200000067, 31.51631610000004 ] } },
{ "type": "Feature", "properties": { "OBJECTID": 7002796, "Name": null, "Place": "נילית בעמ - מגדל העמק", "Comments": "מגדל העמק", "POINT_X": null, "POINT_Y": null, "fromTime": "2020\/10\/23 04:30:00", "toTime": "2020\/10\/23 13:30:00", "sourceOID": 1, "stayTimes": "מ 2020-10-23 07:30 עד 2020-10-23 16:30" }, "geometry": { "type": "Point", "coordinates": [ 35.254993100000036, 32.688262100000031 ] } },
{ "type": "Feature", "properties": { "OBJECTID": 7002797, "Name": null, "Place": "נילית בעמ - מגדל העמק", "Comments": "מגדל העמק", "POINT_X": null, "POINT_Y": null, "fromTime": "2020\/10\/22 04:30:00", "toTime": "2020\/10\/22 13:30:00", "sourceOID": 1, "stayTimes": "מ 2020-10-22 07:30 עד 2020-10-22 16:30" }, "geometry": { "type": "Point", "coordinates": [ 35.254993100000036, 32.688262100000031 ] } },
{ "type": "Feature", "properties": { "OBJECTID": 7002798, "Name": null, "Place": "שופרסל שלי גד מכנס - פתח תקווה", "Comments": "רוטשילד 180, פתח תקווה", "POINT_X": null, "POINT_Y": null, "fromTime": "2020\/10\/21 03:59:59", "toTime": "2020\/10\/21 15:00:00", "sourceOID": 1, "stayTimes": "מ 2020-10-21 07:00 עד 2020-10-21 18:00" }, "geometry": { "type": "Point", "coordinates": [ 34.884659100000079, 32.076487400000076 ] } },
{ "type": "Feature", "properties": { "OBJECTID": 7002799, "Name": "קופת חולים לאומית מרכז בן גוריון, ", "Place": "יהושע רבינוביץ 58, חולון", "Comments": null, "POINT_X": null, "POINT_Y": null, "fromTime": "2020\/10\/21 09:00:00", "toTime": "2020\/10\/21 09:59:59", "sourceOID": 1, "stayTimes": "מ 2020-10-21 12:00 עד 2020-10-21 13:00" }, "geometry": { "type": "Point", "coordinates": [ 34.77393, 31.997028 ] } },
{ "type": "Feature", "properties": { "OBJECTID": 7002800, "Name": "בית מרקחת זיו", "Place": "מרכז סאדאב - חולון", "Comments": "יהושע רבינוביץ 11, חולון", "POINT_X": null, "POINT_Y": null, "fromTime": "2020\/10\/21 08:29:59", "toTime": "2020\/10\/21 09:00:00", "sourceOID": 1, "stayTimes": "מ 2020-10-21 11:30 עד 2020-10-21 12:00" }, "geometry": { "type": "Point", "coordinates": [ 34.769707100000062, 31.999690100000066 ] } },
{ "type": "Feature", "properties": { "OBJECTID": 7002801, "Name": "סופר דוש", "Place": "שאלתיאל דוד 16, חולון", "Comments": null, "POINT_X": null, "POINT_Y": null, "fromTime": "2020\/10\/23 09:00:00", "toTime": "2020\/10\/23 09:59:59", "sourceOID": 1, "stayTimes": "מ 2020-10-23 12:00 עד 2020-10-23 13:00" }, "geometry": { "type": "Point", "coordinates": [ 34.772353600000031, 32.002833500000065 ] } },
{ "type": "Feature", "properties": { "OBJECTID": 7002802, "Name": null, "Place": "קופיקס - חיפה", "Comments": "נתנזון 18, חיפה", "POINT_X": null, "POINT_Y": null, "fromTime": "2020\/10\/22 09:00:00", "toTime": "2020\/10\/22 09:10:00", "sourceOID": 1, "stayTimes": "מ 2020-10-22 12:00 עד 2020-10-22 12:10" }, "geometry": { "type": "Point", "coordinates": [ 34.999896700000079, 32.817418500000031 ] } },
{ "type": "Feature", "properties": { "OBJECTID": 7002803, "Name": "", "Place": "מוסך הזוהר - נתניה", "Comments": "נתניה", "POINT_X": null, "POINT_Y": null, "fromTime": "2020\/10\/22 11:29:59", "toTime": "2020\/10\/22 12:00:00", "sourceOID": 1, "stayTimes": "מ 2020-10-22 14:30 עד 2020-10-22 15:00" }, "geometry": { "type": "Point", "coordinates": [ 34.864100200000053, 32.280709200000047 ] } },
{ "type": "Feature", "properties": { "OBJECTID": 7002804, "Name": "", "Place": "מכון רישוי אלישע - נתניה", "Comments": "יד חרוצים 6, נתניה", "POINT_X": null, "POINT_Y": null, "fromTime": "2020\/10\/22 11:29:59", "toTime": "2020\/10\/22 12:30:00", "sourceOID": 1, "stayTimes": "מ 2020-10-22 14:30 עד 2020-10-22 15:30" }, "geometry": { "type": "Point", "coordinates": [ 34.863063300000078, 32.27890780000007 ] } },
{ "type": "Feature", "properties": { "OBJECTID": 7002805, "Name": null, "Place": "בסיס פלמחים", "Comments": null, "POINT_X": null, "POINT_Y": null, "fromTime": "2020\/10\/25 06:00:00", "toTime": "2020\/10\/25 15:00:00", "sourceOID": 1, "stayTimes": "מ 2020-10-25 08:00 עד 2020-10-25 17:00" }, "geometry": { "type": "Point", "coordinates": [ 34.680179700000053, 31.884686100000067 ] } },
{ "type": "Feature", "properties": { "OBJECTID": 7002806, "Name": null, "Place": "חממה בעיר - רחובות", "Comments": "בית הפועלים 6, רחובות", "POINT_X": null, "POINT_Y": null, "fromTime": "2020\/10\/21 12:59:59", "toTime": "2020\/10\/21 18:59:59", "sourceOID": 1, "stayTimes": "מ 2020-10-21 16:00 עד 2020-10-21 22:00" }, "geometry": { "type": "Point", "coordinates": [ 34.810512800000026, 31.897352 ] } },
{ "type": "Feature", "properties": { "OBJECTID": 7002807, "Name": null, "Place": "חממה בעיר - רחובות", "Comments": "בית הפועלים 6, רחובות", "POINT_X": null, "POINT_Y": null, "fromTime": "2020\/10\/22 05:00:00", "toTime": "2020\/10\/22 12:59:59", "sourceOID": 1, "stayTimes": "מ 2020-10-22 08:00 עד 2020-10-22 16:00" }, "geometry": { "type": "Point", "coordinates": [ 34.810512800000026, 31.897352 ] } },
{ "type": "Feature", "properties": { "OBJECTID": 7002808, "Name": null, "Place": "חממה בעיר - רחובות", "Comments": "בית הפועלים 6, רחובות", "POINT_X": null, "POINT_Y": null, "fromTime": "2020\/10\/23 05:00:00", "toTime": "2020\/10\/23 11:00:00", "sourceOID": 1, "stayTimes": "מ 2020-10-23 08:00 עד 2020-10-23 14:00" }, "geometry": { "type": "Point", "coordinates": [ 34.810512800000026, 31.897352 ] } },
{ "type": "Feature", "properties": { "OBJECTID": 7002809, "Name": "", "Place": "מרכז ניצן - קרית ים", "Comments": "קרית ים", "POINT_X": null, "POINT_Y": null, "fromTime": "2020\/10\/23 09:00:00", "toTime": "2020\/10\/23 09:59:59", "sourceOID": 1, "stayTimes": "מ 2020-10-23 12:00 עד 2020-10-23 13:00" }, "geometry": { "type": "Point", "coordinates": [ 35.067753, 32.844082 ] } },
{ "type": "Feature", "properties": { "OBJECTID": 7002810, "Name": "מאוחדת גבעת זאב ", "Place": "האיילות 41, גבעת זאב", "Comments": null, "POINT_X": null, "POINT_Y": null, "fromTime": "2020\/10\/21 10:30:00", "toTime": "2020\/10\/21 11:00:00", "sourceOID": 1, "stayTimes": "מ 2020-10-21 13:30 עד 2020-10-21 14:00" }, "geometry": { "type": "Point", "coordinates": [ 35.148840900000039, 31.866945200000032 ] } },
{ "type": "Feature", "properties": { "OBJECTID": 7002811, "Name": null, "Place": "סופר-פארם רכבת עפולה - עפולה", "Comments": "שדרות יצחק רבין 20, עפולה", "POINT_X": null, "POINT_Y": null, "fromTime": "2020\/10\/23 09:30:00", "toTime": "2020\/10\/23 11:00:00", "sourceOID": 1, "stayTimes": "מ 2020-10-23 12:30 עד 2020-10-23 14:00" }, "geometry": { "type": "Point", "coordinates": [ 35.299860500000079, 32.614677200000074 ] } },
{ "type": "Feature", "properties": { "OBJECTID": 7002812, "Name": null, "Place": "שופרסל שלי - באר שבע", "Comments": "החשמונאים 15, באר שבע", "POINT_X": null, "POINT_Y": null, "fromTime": "2020\/10\/22 05:29:59", "toTime": "2020\/10\/22 06:59:59", "sourceOID": 1, "stayTimes": "מ 2020-10-22 08:30 עד 2020-10-22 10:00" }, "geometry": { "type": "Point", "coordinates": [ 34.763419200000044, 31.265654400000074 ] } },
{ "type": "Feature", "properties": { "OBJECTID": 7002813, "Name": null, "Place": "חוף טרומפלדור", "Comments": null, "POINT_X": null, "POINT_Y": null, "fromTime": "2020\/10\/24 12:00:00", "toTime": "2020\/10\/24 14:00:00", "sourceOID": 1, "stayTimes": "מ 2020-10-24 15:00 עד 2020-10-24 17:00" }, "geometry": { "type": "Point", "coordinates": [ 34.765439700000059, 32.075942300000065 ] } },
{ "type": "Feature", "properties": { "OBJECTID": 7002814, "Name": "סופר יש-חסד", "Place": "הר\"ן 6, ביתר עילית", "Comments": null, "POINT_X": null, "POINT_Y": null, "fromTime": "2020\/10\/23 06:59:59", "toTime": "2020\/10\/23 08:00:00", "sourceOID": 1, "stayTimes": "מ 2020-10-23 10:00 עד 2020-10-23 11:00" }, "geometry": { "type": "Point", "coordinates": [ 35.116998200000069, 31.705051300000036 ] } },
{ "type": "Feature", "properties": { "OBJECTID": 7002815, "Name": null, "Place": "המרכז הרפואי ע\"ש אדית וולפסון - חולון", "Comments": "הלוחמים 62, חולון", "POINT_X": null, "POINT_Y": null, "fromTime": "2020\/10\/21 09:00:00", "toTime": "2020\/10\/21 14:00:00", "sourceOID": 1, "stayTimes": "מ 2020-10-21 12:00 עד 2020-10-21 17:00" }, "geometry": { "type": "Point", "coordinates": [ 34.762707400000068, 32.036030900000071 ] } },
{ "type": "Feature", "properties": { "OBJECTID": 7002816, "Name": null, "Place": "שופרסל אקספרס - רמת גן", "Comments": "הרא\"ה 131, רמת גן", "POINT_X": null, "POINT_Y": null, "fromTime": "2020\/10\/22 13:44:59", "toTime": "2020\/10\/22 14:05:00", "sourceOID": 1, "stayTimes": "מ 2020-10-22 16:45 עד 2020-10-22 17:05" }, "geometry": { "type": "Point", "coordinates": [ 34.825626, 32.078547900000046 ] } },
{ "type": "Feature", "properties": { "OBJECTID": 7002817, "Name": null, "Place": "שוק רמת גן - רמת גן", "Comments": "הרוא\"ה 106, רמת גן", "POINT_X": null, "POINT_Y": null, "fromTime": "2020\/10\/22 14:05:00", "toTime": "2020\/10\/22 14:25:00", "sourceOID": 1, "stayTimes": "מ 2020-10-22 17:05 עד 2020-10-22 17:25" }, "geometry": { "type": "Point", "coordinates": [ 34.825144800000032, 32.078981600000077 ] } },
{ "type": "Feature", "properties": { "OBJECTID": 7002818, "Name": null, "Place": "קופת חולים מאוחדת - בני ברק", "Comments": "הרב נורוק 20, בני ברק", "POINT_X": null, "POINT_Y": null, "fromTime": "2020\/10\/25 05:00:00", "toTime": "2020\/10\/25 05:19:59", "sourceOID": 1, "stayTimes": "מ 2020-10-25 07:00 עד 2020-10-25 07:20" }, "geometry": { "type": "Point", "coordinates": [ 34.843112, 32.09667230000008 ] } },
{ "type": "Feature", "properties": { "OBJECTID": 7002819, "Name": null, "Place": "אושר עד בני ברק - בני ברק", "Comments": "הקישון 11, בני ברק", "POINT_X": null, "POINT_Y": null, "fromTime": "2020\/10\/22 18:30:00", "toTime": "2020\/10\/22 19:44:59", "sourceOID": 1, "stayTimes": "מ 2020-10-22 21:30 עד 2020-10-22 22:45" }, "geometry": { "type": "Point", "coordinates": [ 34.830104200000051, 32.098930200000041 ] } },
{ "type": "Feature", "properties": { "OBJECTID": 7002820, "Name": "סופר פארם לונדון מיניסטור", "Place": "שדרות שאול המלך 4, תל אביב יפו", "Comments": null, "POINT_X": null, "POINT_Y": null, "fromTime": "2020\/10\/21 05:00:00", "toTime": "2020\/10\/21 12:59:59", "sourceOID": 1, "stayTimes": "מ 2020-10-21 08:00 עד 2020-10-21 16:00" }, "geometry": { "type": "Point", "coordinates": [ 34.782528100000036, 32.07535450000006 ] } },
{ "type": "Feature", "properties": { "OBJECTID": 7002821, "Name": "סופר פארם לונדון מיניסטור", "Place": "שדרות שאול המלך 4, תל אביב יפו", "Comments": null, "POINT_X": null, "POINT_Y": null, "fromTime": "2020\/10\/22 05:00:00", "toTime": "2020\/10\/22 12:59:59", "sourceOID": 1, "stayTimes": "מ 2020-10-22 08:00 עד 2020-10-22 16:00" }, "geometry": { "type": "Point", "coordinates": [ 34.782528100000036, 32.07535450000006 ] } },
{ "type": "Feature", "properties": { "OBJECTID": 7002822, "Name": "סופר פארם לונדון מיניסטור", "Place": "שדרות שאול המלך 4, תל אביב יפו", "Comments": null, "POINT_X": null, "POINT_Y": null, "fromTime": "2020\/10\/24 12:59:59", "toTime": "2020\/10\/24 21:00:00", "sourceOID": 1, "stayTimes": "מ 2020-10-24 16:00 עד 2020-10-25 00:00" }, "geometry": { "type": "Point", "coordinates": [ 34.782528100000036, 32.07535450000006 ] } },
{ "type": "Feature", "properties": { "OBJECTID": 7002823, "Name": null, "Place": "Osher Ad Benei Braq - בני ברק", "Comments": "הקישון 11, בני ברק", "POINT_X": null, "POINT_Y": null, "fromTime": "2020\/10\/21 18:00:00", "toTime": "2020\/10\/21 20:00:00", "sourceOID": 1, "stayTimes": "מ 2020-10-21 21:00 עד 2020-10-21 23:00" }, "geometry": { "type": "Point", "coordinates": [ 34.829722200000049, 32.098888900000077 ] } },
{ "type": "Feature", "properties": { "OBJECTID": 7002824, "Name": null, "Place": "אושי אושי - גבעתיים", "Comments": "דרך יצחק רבין 53, גבעתיים", "POINT_X": null, "POINT_Y": null, "fromTime": "2020\/10\/21 09:00:00", "toTime": "2020\/10\/21 15:59:59", "sourceOID": 1, "stayTimes": "מ 2020-10-21 12:00 עד 2020-10-21 19:00" }, "geometry": { "type": "Point", "coordinates": [ 34.810710800000038, 32.066448500000035 ] } },
{ "type": "Feature", "properties": { "OBJECTID": 7002825, "Name": null, "Place": "אושי אושי - גבעתיים", "Comments": "דרך יצחק רבין 53, גבעתיים", "POINT_X": null, "POINT_Y": null, "fromTime": "2020\/10\/22 09:00:00", "toTime": "2020\/10\/22 14:00:00", "sourceOID": 1, "stayTimes": "מ 2020-10-22 12:00 עד 2020-10-22 17:00" }, "geometry": { "type": "Point", "coordinates": [ 34.810710800000038, 32.066448500000035 ] } },
{ "type": "Feature", "properties": { "OBJECTID": 7002826, "Name": null, "Place": "רמי לוי שיווק השקמה - קרית שמונה - קרית שמונה", "Comments": "קרית שמונה", "POINT_X": null, "POINT_Y": null, "fromTime": "2020\/10\/22 07:30:00", "toTime": "2020\/10\/22 09:00:00", "sourceOID": 1, "stayTimes": "מ 2020-10-22 10:30 עד 2020-10-22 12:00" }, "geometry": { "type": "Point", "coordinates": [ 35.587651100000073, 33.217009300000029 ] } },
{ "type": "Feature", "properties": { "OBJECTID": 7002827, "Name": null, "Place": "קופת חולים מאוחדת מסעדה - מסעדה", "Comments": "מסעדה", "POINT_X": null, "POINT_Y": null, "fromTime": "2020\/10\/22 06:30:00", "toTime": "2020\/10\/22 07:30:00", "sourceOID": 1, "stayTimes": "מ 2020-10-22 09:30 עד 2020-10-22 10:30" }, "geometry": { "type": "Point", "coordinates": [ 35.753903200000025, 33.231592800000044 ] } },
{ "type": "Feature", "properties": { "OBJECTID": 7002828, "Name": null, "Place": "יוספטל 92, בת ים", "Comments": null, "POINT_X": null, "POINT_Y": null, "fromTime": "2020\/10\/22 15:20:00", "toTime": "2020\/10\/22 15:59:59", "sourceOID": 1, "stayTimes": "מ 2020-10-22 18:20 עד 2020-10-22 19:00" }, "geometry": { "type": "Point", "coordinates": [ 34.756167300000072, 32.015182700000025 ] } },
{ "type": "Feature", "properties": { "OBJECTID": 7002829, "Name": "", "Place": "כללית בית מרקחת - טובא זנגריה", "Comments": "טובא זנגריה", "POINT_X": null, "POINT_Y": null, "fromTime": "2020\/10\/25 08:00:00", "toTime": "2020\/10\/25 09:00:00", "sourceOID": 1, "stayTimes": "מ 2020-10-25 10:00 עד 2020-10-25 11:00" }, "geometry": { "type": "Point", "coordinates": [ 35.59238090000008, 32.967373800000075 ] } },
{ "type": "Feature", "properties": { "OBJECTID": 7002830, "Name": "בית קפה \"המפגש\" -ישיבה בספסלים בחוץ ( קרוב למסעדת זוזורבה)", "Place": "פרץ סנטר - מגדל העמק", "Comments": "שדרות שאול עמור 77, מגדל העמק", "POINT_X": null, "POINT_Y": null, "fromTime": "2020\/10\/22 06:59:59", "toTime": "2020\/10\/22 09:00:00", "sourceOID": 1, "stayTimes": "מ 2020-10-22 10:00 עד 2020-10-22 12:00" }, "geometry": { "type": "Point", "coordinates": [ 35.24317590000004, 32.678096700000026 ] } },
{ "type": "Feature", "properties": { "OBJECTID": 7002831, "Name": "", "Place": "ההדרים 2, אשדוד", "Comments": null, "POINT_X": null, "POINT_Y": null, "fromTime": "2020\/10\/22 05:00:00", "toTime": "2020\/10\/22 09:59:59", "sourceOID": 1, "stayTimes": "מ 2020-10-22 08:00 עד 2020-10-22 13:00" }, "geometry": { "type": "Point", "coordinates": [ 34.663516100000038, 31.817767300000071 ] } },
{ "type": "Feature", "properties": { "OBJECTID": 7002832, "Name": null, "Place": "כללית - בני ברק", "Comments": "הרב כהנמן 134, בני ברק", "POINT_X": null, "POINT_Y": null, "fromTime": "2020\/10\/22 11:00:00", "toTime": "2020\/10\/22 11:29:59", "sourceOID": 1, "stayTimes": "מ 2020-10-22 14:00 עד 2020-10-22 14:30" }, "geometry": { "type": "Point", "coordinates": [ 34.841894600000046, 32.073764900000072 ] } },
{ "type": "Feature", "properties": { "OBJECTID": 7002833, "Name": "", "Place": "הדסה עין כרם - ירושלים", "Comments": "ירושלים", "POINT_X": null, "POINT_Y": null, "fromTime": "2020\/10\/22 05:00:00", "toTime": "2020\/10\/22 12:00:00", "sourceOID": 1, "stayTimes": "מ 2020-10-22 08:00 עד 2020-10-22 15:00" }, "geometry": { "type": "Point", "coordinates": [ 35.149410600000067, 31.764950300000066 ] } },
{ "type": "Feature", "properties": { "OBJECTID": 7002834, "Name": "", "Place": "הדסה עין כרם - ירושלים", "Comments": "ירושלים", "POINT_X": null, "POINT_Y": null, "fromTime": "2020\/10\/21 04:30:00", "toTime": "2020\/10\/21 09:59:59", "sourceOID": 1, "stayTimes": "מ 2020-10-21 07:30 עד 2020-10-21 13:00" }, "geometry": { "type": "Point", "coordinates": [ 35.149410600000067, 31.764950300000066 ] } },
{ "type": "Feature", "properties": { "OBJECTID": 7002835, "Name": null, "Place": "ברנר 5, תל אביב יפו", "Comments": null, "POINT_X": null, "POINT_Y": null, "fromTime": "2020\/10\/21 06:00:00", "toTime": "2020\/10\/21 11:29:59", "sourceOID": 1, "stayTimes": "מ 2020-10-21 09:00 עד 2020-10-21 14:30" }, "geometry": { "type": "Point", "coordinates": [ 34.771259300000054, 32.069214900000077 ] } },
{ "type": "Feature", "properties": { "OBJECTID": 7002836, "Name": null, "Place": "אתר ההנצחה לחללי חיל הקשר והתקשוב - יהוד", "Comments": "אלפרט 3, יהוד", "POINT_X": null, "POINT_Y": null, "fromTime": "2020\/10\/22 04:30:00", "toTime": "2020\/10\/22 05:29:59", "sourceOID": 1, "stayTimes": "מ 2020-10-22 07:30 עד 2020-10-22 08:30" }, "geometry": { "type": "Point", "coordinates": [ 34.89412580000004, 32.035166300000071 ] } },
{ "type": "Feature", "properties": { "OBJECTID": 7002837, "Name": null, "Place": "מכינת גל - המדרשה להכשרת מנהיגות - עכו", "Comments": "אחד העם 1, עכו", "POINT_X": null, "POINT_Y": null, "fromTime": "2020\/10\/21 09:00:00", "toTime": "2020\/10\/22 06:59:59", "sourceOID": 1, "stayTimes": "מ 2020-10-21 12:00 עד 2020-10-22 10:00" }, "geometry": { "type": "Point", "coordinates": [ 35.091565700000046, 32.933503500000029 ] } },
{ "type": "Feature", "properties": { "OBJECTID": 7002838, "Name": null, "Place": "ישקר", "Comments": null, "POINT_X": null, "POINT_Y": null, "fromTime": "2020\/10\/21 03:30:00", "toTime": "2020\/10\/21 15:00:00", "sourceOID": 1, "stayTimes": "מ 2020-10-21 06:30 עד 2020-10-21 18:00" }, "geometry": { "type": "Point", "coordinates": [ 35.270198, 32.980311700000073 ] } },
{ "type": "Feature", "properties": { "OBJECTID": 7002839, "Name": null, "Place": "נמל התעופה בן גוריון", "Comments": null, "POINT_X": null, "POINT_Y": null, "fromTime": "2020\/10\/25 10:30:00", "toTime": "2020\/10\/25 11:29:59", "sourceOID": 1, "stayTimes": "מ 2020-10-25 12:30 עד 2020-10-25 13:30" }, "geometry": { "type": "Point", "coordinates": [ 34.885411200000078, 32.005532 ] } },
{ "type": "Feature", "properties": { "OBJECTID": 7002840, "Name": null, "Place": "יש חסד לב הרמה - בית שמש", "Comments": "שדרות נהר הירדן 1, בית שמש", "POINT_X": null, "POINT_Y": null, "fromTime": "2020\/10\/21 12:30:00", "toTime": "2020\/10\/21 13:30:00", "sourceOID": 1, "stayTimes": "מ 2020-10-21 15:30 עד 2020-10-21 16:30" }, "geometry": { "type": "Point", "coordinates": [ 34.992608100000041, 31.73609730000004 ] } },
{ "type": "Feature", "properties": { "OBJECTID": 7002841, "Name": null, "Place": "הבנאי 6, אריאל", "Comments": null, "POINT_X": null, "POINT_Y": null, "fromTime": "2020\/10\/22 17:00:00", "toTime": "2020\/10\/22 17:29:59", "sourceOID": 1, "stayTimes": "מ 2020-10-22 20:00 עד 2020-10-22 20:30" }, "geometry": { "type": "Point", "coordinates": [ 35.170592100000079, 32.100827700000025 ] } },
{ "type": "Feature", "properties": { "OBJECTID": 7002842, "Name": null, "Place": "האורגים 1, באר שבע", "Comments": null, "POINT_X": null, "POINT_Y": null, "fromTime": "2020\/10\/22 12:00:00", "toTime": "2020\/10\/22 12:59:59", "sourceOID": 1, "stayTimes": "מ 2020-10-22 15:00 עד 2020-10-22 16:00" }, "geometry": { "type": "Point", "coordinates": [ 34.814864900000032, 31.254303700000037 ] } },
{ "type": "Feature", "properties": { "OBJECTID": 7002843, "Name": null, "Place": "אינגליש קייק - ירושלים", "Comments": "אגריפס 103, ירושלים", "POINT_X": null, "POINT_Y": null, "fromTime": "2020\/10\/21 12:30:00", "toTime": "2020\/10\/21 12:59:59", "sourceOID": 1, "stayTimes": "מ 2020-10-21 15:30 עד 2020-10-21 16:00" }, "geometry": { "type": "Point", "coordinates": [ 35.212469800000065, 31.783932700000037 ] } },
{ "type": "Feature", "properties": { "OBJECTID": 7002844, "Name": null, "Place": "שדה תעופה בן גוריון", "Comments": null, "POINT_X": null, "POINT_Y": null, "fromTime": "2020\/10\/21 00:30:00", "toTime": "2020\/10\/21 03:00:00", "sourceOID": 1, "stayTimes": "מ 2020-10-21 03:30 עד 2020-10-21 06:00" }, "geometry": { "type": "Point", "coordinates": [ 34.885411, 32.005532 ] } },
{ "type": "Feature", "properties": { "OBJECTID": 7002845, "Name": null, "Place": "קופת חולים כללית", "Comments": " 10, ", "POINT_X": null, "POINT_Y": null, "fromTime": "2020\/10\/21 07:30:00", "toTime": "2020\/10\/21 08:00:00", "sourceOID": 1, "stayTimes": "מ 2020-10-21 10:30 עד 2020-10-21 11:00" }, "geometry": { "type": "Point", "coordinates": [ 34.963522, 32.819941 ] } },
{ "type": "Feature", "properties": { "OBJECTID": 7002846, "Name": null, "Place": "סופר בני יעקב - רחובות", "Comments": "העלייה 13, רחובות", "POINT_X": null, "POINT_Y": null, "fromTime": "2020\/10\/22 06:00:00", "toTime": "2020\/10\/22 06:30:00", "sourceOID": 1, "stayTimes": "מ 2020-10-22 09:00 עד 2020-10-22 09:30" }, "geometry": { "type": "Point", "coordinates": [ 34.804396800000063, 31.883038700000043 ] } },
{ "type": "Feature", "properties": { "OBJECTID": 7002847, "Name": null, "Place": "בלפור 1, אור עקיבא", "Comments": null, "POINT_X": null, "POINT_Y": null, "fromTime": "2020\/10\/25 18:00:00", "toTime": "2020\/10\/25 18:30:00", "sourceOID": 1, "stayTimes": "מ 2020-10-25 20:00 עד 2020-10-25 20:30" }, "geometry": { "type": "Point", "coordinates": [ 34.918442300000038, 32.509353 ] } },
{ "type": "Feature", "properties": { "OBJECTID": 7002848, "Name": null, "Place": "שופרסל שלי - אגרון - ירושלים", "Comments": "גרשון אגרון 1, ירושלים", "POINT_X": null, "POINT_Y": null, "fromTime": "2020\/10\/21 16:30:00", "toTime": "2020\/10\/21 17:00:00", "sourceOID": 1, "stayTimes": "מ 2020-10-21 19:30 עד 2020-10-21 20:00" }, "geometry": { "type": "Point", "coordinates": [ 35.218055600000071, 31.775833300000045 ] } },
{ "type": "Feature", "properties": { "OBJECTID": 7002849, "Name": null, "Place": "קופת חולים לאומית - בת ים", "Comments": "מוכרי הסיגריות 3, בת ים", "POINT_X": null, "POINT_Y": null, "fromTime": "2020\/10\/23 07:50:00", "toTime": "2020\/10\/23 08:15:00", "sourceOID": 1, "stayTimes": "מ 2020-10-23 10:50 עד 2020-10-23 11:15" }, "geometry": { "type": "Point", "coordinates": [ 34.756111200000078, 32.013532 ] } },
{ "type": "Feature", "properties": { "OBJECTID": 7002850, "Name": null, "Place": "קופת חולים לאומית - בת ים", "Comments": "מוכרי הסיגריות 3, בת ים", "POINT_X": null, "POINT_Y": null, "fromTime": "2020\/10\/23 07:50:00", "toTime": "2020\/10\/23 08:19:59", "sourceOID": 1, "stayTimes": "מ 2020-10-23 10:50 עד 2020-10-23 11:20" }, "geometry": { "type": "Point", "coordinates": [ 34.756111200000078, 32.013532 ] } },
{ "type": "Feature", "properties": { "OBJECTID": 7002851, "Name": null, "Place": "מרפאת זבולון - קופת חולים כללית - קריית ביאליק", "Comments": "המייסדים 7, קריית ביאליק", "POINT_X": null, "POINT_Y": null, "fromTime": "2020\/10\/25 11:00:00", "toTime": "2020\/10\/25 12:00:00", "sourceOID": 1, "stayTimes": "מ 2020-10-25 13:00 עד 2020-10-25 14:00" }, "geometry": { "type": "Point", "coordinates": [ 35.092496200000028, 32.844543300000055 ] } },
{ "type": "Feature", "properties": { "OBJECTID": 7002852, "Name": null, "Place": "רמי לוי - סניף גבעת שאול מהדרין - ירושלים", "Comments": "כנפי נשרים 26, ירושלים", "POINT_X": null, "POINT_Y": null, "fromTime": "2020\/10\/22 19:30:00", "toTime": "2020\/10\/22 20:29:59", "sourceOID": 1, "stayTimes": "מ 2020-10-22 22:30 עד 2020-10-22 23:30" }, "geometry": { "type": "Point", "coordinates": [ 35.185029300000053, 31.788287100000048 ] } },
{ "type": "Feature", "properties": { "OBJECTID": 7002853, "Name": null, "Place": "רמי לוי - סניף האומן - ירושלים", "Comments": "האומן 15, ירושלים", "POINT_X": null, "POINT_Y": null, "fromTime": "2020\/10\/21 14:00:00", "toTime": "2020\/10\/21 15:30:00", "sourceOID": 1, "stayTimes": "מ 2020-10-21 17:00 עד 2020-10-21 18:30" }, "geometry": { "type": "Point", "coordinates": [ 35.209575700000073, 31.750410100000067 ] } },
{ "type": "Feature", "properties": { "OBJECTID": 7002854, "Name": null, "Place": "בית חולים רמב\"ם - חיפה", "Comments": "העלייה השנייה 8, חיפה", "POINT_X": null, "POINT_Y": null, "fromTime": "2020\/10\/26 18:00:00", "toTime": "2020\/10\/27 09:00:00", "sourceOID": 1, "stayTimes": "מ 2020-10-26 20:00 עד 2020-10-27 11:00" }, "geometry": { "type": "Point", "coordinates": [ 34.985706600000071, 32.832987500000058 ] } },
{ "type": "Feature", "properties": { "OBJECTID": 7002855, "Name": null, "Place": "דניאל 72, בת ים", "Comments": null, "POINT_X": null, "POINT_Y": null, "fromTime": "2020\/10\/21 06:59:59", "toTime": "2020\/10\/21 09:59:59", "sourceOID": 1, "stayTimes": "מ 2020-10-21 10:00 עד 2020-10-21 13:00" }, "geometry": { "type": "Point", "coordinates": [ 34.749765600000046, 32.018439600000079 ] } },
{ "type": "Feature", "properties": { "OBJECTID": 7002856, "Name": null, "Place": "יוחננוף Yochananof - ירושלים", "Comments": "האומן 10, ירושלים", "POINT_X": null, "POINT_Y": null, "fromTime": "2020\/10\/25 09:59:59", "toTime": "2020\/10\/25 11:00:00", "sourceOID": 1, "stayTimes": "מ 2020-10-25 12:00 עד 2020-10-25 13:00" }, "geometry": { "type": "Point", "coordinates": [ 35.211090200000058, 31.748866700000065 ] } },
{ "type": "Feature", "properties": { "OBJECTID": 7002857, "Name": null, "Place": "הריטב\"א 20, מודיעין עילית", "Comments": null, "POINT_X": null, "POINT_Y": null, "fromTime": "2020\/10\/22 12:59:59", "toTime": "2020\/10\/22 13:09:59", "sourceOID": 1, "stayTimes": "מ 2020-10-22 16:00 עד 2020-10-22 16:10" }, "geometry": { "type": "Point", "coordinates": [ 35.048520900000028, 31.927605700000072 ] } },
{ "type": "Feature", "properties": { "OBJECTID": 7002858, "Name": null, "Place": "אליהו קורן 27, ירושלים", "Comments": null, "POINT_X": null, "POINT_Y": null, "fromTime": "2020\/10\/21 14:29:59", "toTime": "2020\/10\/21 15:00:00", "sourceOID": 1, "stayTimes": "מ 2020-10-21 17:30 עד 2020-10-21 18:00" }, "geometry": { "type": "Point", "coordinates": [ 35.224422300000072, 31.722474 ] } },
{ "type": "Feature", "properties": { "OBJECTID": 7002859, "Name": null, "Place": "מרכז מסחרי ברכל - מודיעין עילית", "Comments": "מודיעין עילית", "POINT_X": null, "POINT_Y": null, "fromTime": "2020\/10\/21 09:00:00", "toTime": "2020\/10\/21 15:59:59", "sourceOID": 1, "stayTimes": "מ 2020-10-21 12:00 עד 2020-10-21 19:00" }, "geometry": { "type": "Point", "coordinates": [ 35.046425500000055, 31.939878200000066 ] } },
{ "type": "Feature", "properties": { "OBJECTID": 7002860, "Name": null, "Place": "סופר פארם - יבנה", "Comments": "הדוגית 16, יבנה", "POINT_X": null, "POINT_Y": null, "fromTime": "2020\/10\/26 09:30:00", "toTime": "2020\/10\/26 09:59:59", "sourceOID": 1, "stayTimes": "מ 2020-10-26 11:30 עד 2020-10-26 12:00" }, "geometry": { "type": "Point", "coordinates": [ 34.735632800000076, 31.866819200000066 ] } },
{ "type": "Feature", "properties": { "OBJECTID": 7002861, "Name": null, "Place": "אושר עד - ירושלים", "Comments": "שמגר 16, ירושלים", "POINT_X": null, "POINT_Y": null, "fromTime": "2020\/10\/21 15:30:00", "toTime": "2020\/10\/21 17:29:59", "sourceOID": 1, "stayTimes": "מ 2020-10-21 18:30 עד 2020-10-21 20:30" }, "geometry": { "type": "Point", "coordinates": [ 35.208247300000039, 31.79484 ] } },
{ "type": "Feature", "properties": { "OBJECTID": 7002862, "Name": null, "Place": "בית עין יהב שבערבה - עין יהב", "Comments": "עין יהב", "POINT_X": null, "POINT_Y": null, "fromTime": "2020\/10\/23 05:00:00", "toTime": "2020\/10\/23 18:00:00", "sourceOID": 1, "stayTimes": "מ 2020-10-23 08:00 עד 2020-10-23 21:00" }, "geometry": { "type": "Point", "coordinates": [ 35.234074900000053, 30.653828200000078 ] } },
{ "type": "Feature", "properties": { "OBJECTID": 7002863, "Name": null, "Place": "היפר כהן סניף מערב נתיבות - נתיבות", "Comments": "גני טל 2, נתיבות", "POINT_X": null, "POINT_Y": null, "fromTime": "2020\/10\/25 07:30:00", "toTime": "2020\/10\/25 09:00:00", "sourceOID": 1, "stayTimes": "מ 2020-10-25 09:30 עד 2020-10-25 11:00" }, "geometry": { "type": "Point", "coordinates": [ 34.571917700000029, 31.416812600000071 ] } },
{ "type": "Feature", "properties": { "OBJECTID": 7002864, "Name": null, "Place": "ממתקי אלי זול - נתיבות", "Comments": "גני טל 2, נתיבות", "POINT_X": null, "POINT_Y": null, "fromTime": "2020\/10\/26 08:00:00", "toTime": "2020\/10\/26 09:30:00", "sourceOID": 1, "stayTimes": "מ 2020-10-26 10:00 עד 2020-10-26 11:30" }, "geometry": { "type": "Point", "coordinates": [ 34.57199890000004, 31.416740100000027 ] } },
{ "type": "Feature", "properties": { "OBJECTID": 7002865, "Name": null, "Place": "כללית - חורה", "Comments": "חורה", "POINT_X": null, "POINT_Y": null, "fromTime": "2020\/10\/21 12:00:00", "toTime": "2020\/10\/21 12:30:00", "sourceOID": 1, "stayTimes": "מ 2020-10-21 15:00 עד 2020-10-21 15:30" }, "geometry": { "type": "Point", "coordinates": [ 34.935140700000034, 31.300756200000023 ] } },
{ "type": "Feature", "properties": { "OBJECTID": 7002866, "Name": null, "Place": "אלקנאטר 10, מזרעה", "Comments": null, "POINT_X": null, "POINT_Y": null, "fromTime": "2020\/10\/24 13:05:19", "toTime": "2020\/10\/24 14:29:56", "sourceOID": 1, "stayTimes": "מ 2020-10-24 16:05 עד 2020-10-24 17:29" }, "geometry": { "type": "Point", "coordinates": [ 35.09633830000007, 32.986395500000071 ] } },
{ "type": "Feature", "properties": { "OBJECTID": 7002867, "Name": null, "Place": "סורוקה מיון\/יצחק רגר - באר שבע", "Comments": "באר שבע", "POINT_X": null, "POINT_Y": null, "fromTime": "2020\/10\/22 06:59:59", "toTime": "2020\/10\/22 12:59:59", "sourceOID": 1, "stayTimes": "מ 2020-10-22 10:00 עד 2020-10-22 16:00" }, "geometry": { "type": "Point", "coordinates": [ 34.798744, 31.256046 ] } },
{ "type": "Feature", "properties": { "OBJECTID": 7002868, "Name": null, "Place": "נמל התעופה בן גוריון", "Comments": null, "POINT_X": null, "POINT_Y": null, "fromTime": "2020\/10\/24 22:30:00", "toTime": "2020\/10\/25 00:00:00", "sourceOID": 1, "stayTimes": "מ 2020-10-25 01:30 עד 2020-10-25 02:00" }, "geometry": { "type": "Point", "coordinates": [ 34.885411200000078, 32.005532 ] } },
{ "type": "Feature", "properties": { "OBJECTID": 7002869, "Name": null, "Place": "יינות ביתן - חולון", "Comments": "המרגנית 2, חולון", "POINT_X": null, "POINT_Y": null, "fromTime": "2020\/10\/22 12:59:59", "toTime": "2020\/10\/22 13:30:00", "sourceOID": 1, "stayTimes": "מ 2020-10-22 16:00 עד 2020-10-22 16:30" }, "geometry": { "type": "Point", "coordinates": [ 34.778470600000048, 32.008763400000078 ] } },
{ "type": "Feature", "properties": { "OBJECTID": 7002870, "Name": null, "Place": "דושי סנטר - נצרת", "Comments": "בילאל 45, נצרת", "POINT_X": null, "POINT_Y": null, "fromTime": "2020\/10\/21 03:30:00", "toTime": "2020\/10\/21 12:59:59", "sourceOID": 1, "stayTimes": "מ 2020-10-21 06:30 עד 2020-10-21 16:00" }, "geometry": { "type": "Point", "coordinates": [ 35.299323900000047, 32.717911 ] } },
{ "type": "Feature", "properties": { "OBJECTID": 7002871, "Name": null, "Place": "דושי סנטר - נצרת", "Comments": "בילאל 45, נצרת", "POINT_X": null, "POINT_Y": null, "fromTime": "2020\/10\/22 04:30:00", "toTime": "2020\/10\/22 12:59:59", "sourceOID": 1, "stayTimes": "מ 2020-10-22 07:30 עד 2020-10-22 16:00" }, "geometry": { "type": "Point", "coordinates": [ 35.299323900000047, 32.717911 ] } },
{ "type": "Feature", "properties": { "OBJECTID": 7002872, "Name": null, "Place": "מעון לבצלר - הרצליה", "Comments": "הרצליה", "POINT_X": null, "POINT_Y": null, "fromTime": "2020\/10\/24 02:29:59", "toTime": "2020\/10\/24 12:59:59", "sourceOID": 1, "stayTimes": "מ 2020-10-24 05:30 עד 2020-10-24 16:00" }, "geometry": { "type": "Point", "coordinates": [ 34.851701600000069, 32.168961600000046 ] } },
{ "type": "Feature", "properties": { "OBJECTID": 7002873, "Name": null, "Place": "מעון לבצלר - הרצליה", "Comments": "הרצליה", "POINT_X": null, "POINT_Y": null, "fromTime": "2020\/10\/26 03:59:59", "toTime": "2020\/10\/26 14:00:00", "sourceOID": 1, "stayTimes": "מ 2020-10-26 06:00 עד 2020-10-26 16:00" }, "geometry": { "type": "Point", "coordinates": [ 34.851701600000069, 32.168961600000046 ] } },
{ "type": "Feature", "properties": { "OBJECTID": 7002874, "Name": null, "Place": "בית מרקחת שביט בע\"מ - קרית אתא", "Comments": "איינשטיין 20, קרית אתא", "POINT_X": null, "POINT_Y": null, "fromTime": "2020\/10\/22 12:30:00", "toTime": "2020\/10\/22 12:59:59", "sourceOID": 1, "stayTimes": "מ 2020-10-22 15:30 עד 2020-10-22 16:00" }, "geometry": { "type": "Point", "coordinates": [ 35.11574870000004, 32.813731100000041 ] } },
{ "type": "Feature", "properties": { "OBJECTID": 7002875, "Name": null, "Place": "בר כל - בני ברק", "Comments": "יצחק מאיר הכהן 2-4, בני ברק", "POINT_X": null, "POINT_Y": null, "fromTime": "2020\/10\/21 09:59:59", "toTime": "2020\/10\/21 10:30:00", "sourceOID": 1, "stayTimes": "מ 2020-10-21 13:00 עד 2020-10-21 13:30" }, "geometry": { "type": "Point", "coordinates": [ 34.841041800000028, 32.084817300000054 ] } },
{ "type": "Feature", "properties": { "OBJECTID": 7002876, "Name": "", "Place": "שופרסל בעכו - עכו", "Comments": "חיים משה שפירא 28, עכו", "POINT_X": null, "POINT_Y": null, "fromTime": "2020\/10\/24 15:59:59", "toTime": "2020\/10\/24 16:30:00", "sourceOID": 1, "stayTimes": "מ 2020-10-24 19:00 עד 2020-10-24 19:30" }, "geometry": { "type": "Point", "coordinates": [ 35.078024, 32.93750760000006 ] } },
{ "type": "Feature", "properties": { "OBJECTID": 7002877, "Name": null, "Place": "חוף צאלון", "Comments": null, "POINT_X": null, "POINT_Y": null, "fromTime": "2020\/10\/21 03:59:59", "toTime": "2020\/10\/21 13:30:00", "sourceOID": 1, "stayTimes": "מ 2020-10-21 07:00 עד 2020-10-21 16:30" }, "geometry": { "type": "Point", "coordinates": [ 35.648496400000056, 32.840559700000028 ] } },
{ "type": "Feature", "properties": { "OBJECTID": 7002878, "Name": null, "Place": "מכבידנט - נוף הגליל", "Comments": "נוף הגליל", "POINT_X": null, "POINT_Y": null, "fromTime": "2020\/10\/25 14:00:00", "toTime": "2020\/10\/25 14:29:59", "sourceOID": 1, "stayTimes": "מ 2020-10-25 16:00 עד 2020-10-25 16:30" }, "geometry": { "type": "Point", "coordinates": [ 35.321591100000035, 32.702479 ] } },
{ "type": "Feature", "properties": { "OBJECTID": 7002879, "Name": null, "Place": "סופר-פארם יד אליהו - תל אביב יפו", "Comments": "יגאל אלון 51, תל אביב יפו", "POINT_X": null, "POINT_Y": null, "fromTime": "2020\/10\/21 09:30:00", "toTime": "2020\/10\/21 09:40:00", "sourceOID": 1, "stayTimes": "מ 2020-10-21 12:30 עד 2020-10-21 12:40" }, "geometry": { "type": "Point", "coordinates": [ 34.791657400000076, 32.061425700000029 ] } },
{ "type": "Feature", "properties": { "OBJECTID": 7002880, "Name": "סופר ספיר", "Place": "אליהו קורן 25, ירושלים", "Comments": null, "POINT_X": null, "POINT_Y": null, "fromTime": "2020\/10\/22 08:00:00", "toTime": "2020\/10\/22 08:29:59", "sourceOID": 1, "stayTimes": "מ 2020-10-22 11:00 עד 2020-10-22 11:30" }, "geometry": { "type": "Point", "coordinates": [ 35.223502600000074, 31.722175500000048 ] } },
{ "type": "Feature", "properties": { "OBJECTID": 7002881, "Name": "מחלקת ילדים", "Place": "המרכז הרפואי זיו - צפת", "Comments": "דרך הרמב\"ם , צפת", "POINT_X": null, "POINT_Y": null, "fromTime": "2020\/10\/21 10:30:00", "toTime": "2020\/10\/21 18:59:59", "sourceOID": 1, "stayTimes": "מ 2020-10-21 13:30 עד 2020-10-21 22:00" }, "geometry": { "type": "Point", "coordinates": [ 35.492657, 32.954157 ] } },
{ "type": "Feature", "properties": { "OBJECTID": 7002882, "Name": "מחלקת ילדים", "Place": "המרכז הרפואי זיו - צפת", "Comments": "דרך הרמב\"ם , צפת", "POINT_X": null, "POINT_Y": null, "fromTime": "2020\/10\/22 10:30:00", "toTime": "2020\/10\/22 18:59:59", "sourceOID": 1, "stayTimes": "מ 2020-10-22 13:30 עד 2020-10-22 22:00" }, "geometry": { "type": "Point", "coordinates": [ 35.492657, 32.954157 ] } },
{ "type": "Feature", "properties": { "OBJECTID": 7002883, "Name": "מחלקת ילדים", "Place": "המרכז הרפואי זיו - צפת", "Comments": "דרך הרמב\"ם , צפת", "POINT_X": null, "POINT_Y": null, "fromTime": "2020\/10\/24 10:30:00", "toTime": "2020\/10\/24 18:59:59", "sourceOID": 1, "stayTimes": "מ 2020-10-24 13:30 עד 2020-10-24 22:00" }, "geometry": { "type": "Point", "coordinates": [ 35.492657, 32.954157 ] } },
{ "type": "Feature", "properties": { "OBJECTID": 7002884, "Name": "מחלקת ילדים", "Place": "המרכז הרפואי זיו - צפת", "Comments": "דרך הרמב\"ם , צפת", "POINT_X": null, "POINT_Y": null, "fromTime": "2020\/10\/25 11:29:59", "toTime": "2020\/10\/25 20:00:00", "sourceOID": 1, "stayTimes": "מ 2020-10-25 13:30 עד 2020-10-25 22:00" }, "geometry": { "type": "Point", "coordinates": [ 35.492657, 32.954157 ] } },
{ "type": "Feature", "properties": { "OBJECTID": 7002885, "Name": "מרפאות חוץ, אורתופדיה", "Place": "בית חולים ברזילי - אשקלון", "Comments": "אשקלון", "POINT_X": null, "POINT_Y": null, "fromTime": "2020\/10\/25 09:00:00", "toTime": "2020\/10\/25 09:30:00", "sourceOID": 1, "stayTimes": "מ 2020-10-25 11:00 עד 2020-10-25 11:30" }, "geometry": { "type": "Point", "coordinates": [ 34.562428, 31.663252 ] } },
{ "type": "Feature", "properties": { "OBJECTID": 7002886, "Name": null, "Place": "בית חולים אלישע - חיפה", "Comments": "יאיר כ\"ץ 12, חיפה", "POINT_X": null, "POINT_Y": null, "fromTime": "2020\/10\/21 06:00:00", "toTime": "2020\/10\/21 12:30:00", "sourceOID": 1, "stayTimes": "מ 2020-10-21 09:00 עד 2020-10-21 15:30" }, "geometry": { "type": "Point", "coordinates": [ 34.992402800000036, 32.800891500000034 ] } },
{ "type": "Feature", "properties": { "OBJECTID": 7002887, "Name": null, "Place": "רמים 104, כרמיאל", "Comments": null, "POINT_X": null, "POINT_Y": null, "fromTime": "2020\/10\/23 09:59:59", "toTime": "2020\/10\/23 10:30:00", "sourceOID": 1, "stayTimes": "מ 2020-10-23 13:00 עד 2020-10-23 13:30" }, "geometry": { "type": "Point", "coordinates": [ 35.29384820000007, 32.918703200000039 ] } },
{ "type": "Feature", "properties": { "OBJECTID": 7002888, "Name": null, "Place": "כללית ראש העין - ראש העין", "Comments": "צה\"ל 8, ראש העין", "POINT_X": null, "POINT_Y": null, "fromTime": "2020\/10\/21 08:00:00", "toTime": "2020\/10\/21 09:30:00", "sourceOID": 1, "stayTimes": "מ 2020-10-21 11:00 עד 2020-10-21 12:30" }, "geometry": { "type": "Point", "coordinates": [ 34.943818500000077, 32.098188300000061 ] } },
{ "type": "Feature", "properties": { "OBJECTID": 7002889, "Name": null, "Place": "סופר-פארם מעלות - מעלות תרשיחא", "Comments": " 3, מעלות תרשיחא", "POINT_X": null, "POINT_Y": null, "fromTime": "2020\/10\/25 10:30:00", "toTime": "2020\/10\/25 15:00:00", "sourceOID": 1, "stayTimes": "מ 2020-10-25 12:30 עד 2020-10-25 17:00" }, "geometry": { "type": "Point", "coordinates": [ 35.28086, 33.021128 ] } },
{ "type": "Feature", "properties": { "OBJECTID": 7002890, "Name": null, "Place": "היפר דודו - קרית ים", "Comments": "אירוס 1, קרית ים", "POINT_X": null, "POINT_Y": null, "fromTime": "2020\/10\/23 09:59:59", "toTime": "2020\/10\/23 11:00:00", "sourceOID": 1, "stayTimes": "מ 2020-10-23 13:00 עד 2020-10-23 14:00" }, "geometry": { "type": "Point", "coordinates": [ 35.071286, 32.843393900000024 ] } },
{ "type": "Feature", "properties": { "OBJECTID": 7002891, "Name": null, "Place": "קופיקס, משה שרת, קרית ים - קרית ים", "Comments": "שדרות משה שרת 4, קרית ים", "POINT_X": null, "POINT_Y": null, "fromTime": "2020\/10\/21 05:29:59", "toTime": "2020\/10\/21 06:00:00", "sourceOID": 1, "stayTimes": "מ 2020-10-21 08:30 עד 2020-10-21 09:00" }, "geometry": { "type": "Point", "coordinates": [ 35.067783, 32.843131700000072 ] } },
{ "type": "Feature", "properties": { "OBJECTID": 7002892, "Name": null, "Place": "בית חולים אלישע - חיפה", "Comments": "יאיר כ\"ץ 12, חיפה", "POINT_X": null, "POINT_Y": null, "fromTime": "2020\/10\/22 06:00:00", "toTime": "2020\/10\/22 12:30:00", "sourceOID": 1, "stayTimes": "מ 2020-10-22 09:00 עד 2020-10-22 15:30" }, "geometry": { "type": "Point", "coordinates": [ 34.992402800000036, 32.800891500000034 ] } },
{ "type": "Feature", "properties": { "OBJECTID": 7002893, "Name": null, "Place": "חוף הכרמל", "Comments": null, "POINT_X": null, "POINT_Y": null, "fromTime": "2020\/10\/23 10:30:00", "toTime": "2020\/10\/23 12:59:59", "sourceOID": 1, "stayTimes": "מ 2020-10-23 13:30 עד 2020-10-23 16:00" }, "geometry": { "type": "Point", "coordinates": [ 34.955317600000058, 32.805771200000038 ] } },
{ "type": "Feature", "properties": { "OBJECTID": 7002894, "Name": null, "Place": "שולחן ערוך - המרכז לכלים חד פעמיים בע\"מ - ראש העין", "Comments": "חותמי המגילה 12, ראש העין", "POINT_X": null, "POINT_Y": null, "fromTime": "2020\/10\/21 08:00:00", "toTime": "2020\/10\/21 09:30:00", "sourceOID": 1, "stayTimes": "מ 2020-10-21 11:00 עד 2020-10-21 12:30" }, "geometry": { "type": "Point", "coordinates": [ 34.948293800000044, 32.098504700000035 ] } },
{ "type": "Feature", "properties": { "OBJECTID": 7002895, "Name": null, "Place": "קופ\"ח מאוחדת - חולון", "Comments": "שדרות קוגל 45, חולון", "POINT_X": null, "POINT_Y": null, "fromTime": "2020\/10\/25 06:59:59", "toTime": "2020\/10\/25 08:00:00", "sourceOID": 1, "stayTimes": "מ 2020-10-25 09:00 עד 2020-10-25 10:00" }, "geometry": { "type": "Point", "coordinates": [ 34.774859400000025, 32.023177900000064 ] } },
{ "type": "Feature", "properties": { "OBJECTID": 7002896, "Name": null, "Place": "המרכז הרפואי ע\"ש אדית וולפסון - חולון", "Comments": "הלוחמים 62, חולון", "POINT_X": null, "POINT_Y": null, "fromTime": "2020\/10\/26 18:00:00", "toTime": "2020\/10\/26 21:30:00", "sourceOID": 1, "stayTimes": "מ 2020-10-26 20:00 עד 2020-10-26 23:30" }, "geometry": { "type": "Point", "coordinates": [ 34.762707400000068, 32.036030900000071 ] } },
{ "type": "Feature", "properties": { "OBJECTID": 7002897, "Name": null, "Place": "דן דיל - פרדס חנה כרכור", "Comments": "הדקלים 99, פרדס חנה כרכור", "POINT_X": null, "POINT_Y": null, "fromTime": "2020\/10\/21 08:00:00", "toTime": "2020\/10\/21 09:30:00", "sourceOID": 1, "stayTimes": "מ 2020-10-21 11:00 עד 2020-10-21 12:30" }, "geometry": { "type": "Point", "coordinates": [ 34.973174, 32.473748 ] } },